,tanggal,jenis_kejadian_bencana,alamat,location,latitude,longitude
1,2020-08-01,Kebakaran,"Jl. Dr. Soemorno, Pulo Gebang, Cakung,  Kota Administrasi Jakarta Timur",Badan Pertahanan Nasional Kota Administrasi Jakarta Timur,-6.214899999999943,106.94562000000008
9,2020-08-01,Kebakaran,"Jl. Swadaya, No. 24, Kedaung Kali Angke, Cengkareng,  Kota Administrasi Jakarta Barat","Jalan Swadaya 24, Cengkareng, DKI Jakarta, 11710",-6.15469001520178,106.76761999110113
18,2020-08-01,Kebakaran,"Jl. Pahlawan Revolusi, No. 4, Pondok Bambu, Duren Sawit,  Kota Administrasi Jakarta Timur","Jalan Pahlawan Revolusi 4, Duren Sawit, DKI Jakarta, 13430",-6.2354999856257365,106.89740001545164
20,2020-08-02,Kebakaran,"Jl.Toga Asri 4 ( Asrama Polsek Ciracas ), Ciracas, Ciracas,  Kota Administrasi Jakarta Timur","Jalan Toga Asri 4, Ciracas, DKI Jakarta, 13750",-6.291599262018909,106.8735644822787
21,2020-08-02,Kebakaran,"Jl.Kp Bahari Gg.2, Tanjung Priok, Tanjung Priok,  Kota Administrasi Jakarta Utara",Kota Administrasi Jakarta Utara,-6.139129999999966,106.86195000000004
22,2020-08-02,Kebakaran,"Jl.Jatipadang Utara Gg.Bakri No..93, Jatipadang, Pasar Minggu,  Kota Administrasi Jakarta Selatan","Jalan Jati Padang Utara 93, Pasar Minggu, DKI Jakarta, 12540",-6.284070491530199,106.8288942587285
23,2020-08-02,Kebakaran,"Jl.Puri Kencana ( Kawan Lama ), Meruya Utara, Kembangan,  Kota Administrasi Jakarta Barat","Jalan Puri Kencana, Kembangan, DKI Jakarta, 11610",-6.190821231991595,106.74849610775082
26,2020-08-02,Kebakaran,"Jl.Tanjung Duren Timur, Tanjung Duren Selatan, Grogol Petamburan,  Kota Administrasi Jakarta Barat","Jalan Tanjung Duren Timur, Grogol Petamburan, DKI Jakarta, 11470",-6.18044494240565,106.78940506036832
30,2020-08-02,Kebakaran,"Jl.Pulo Laki Blok E12 ( Komplek Kodamar ), Kelapa Gading Barat, Kelapa Gading,  Kota Administrasi Jakarta Utara","Kelapa Gading Barat, Kelapa Gading, DKI Jakarta",-6.1534299999999575,106.89686000000006
32,2020-08-02,Kebakaran,"Jl.Camat Gabun, Lenteng Agung, Jagakarsa,  Kota Administrasi Jakarta Selatan","Jalan Camat Gabun, Jagakarsa, DKI Jakarta, 12610",-6.337684154208162,106.83809227828833
35,2020-08-03,Kebakaran,"Jalan Raden Inten, Duren sawit, Duren Sawit,  Kota Administrasi Jakarta Timur","Jalan Raden Inten II, Duren Sawit, DKI Jakarta, 13440",-6.245411667473471,106.91956202946727
36,2020-08-03,Kebakaran,"Perum Kampung Ubu, Ciputat, Ciputat, Kota Tangerang Selatan","Ciputat, Banten",-6.319119999999941,106.74552000000006
44,2020-08-03,Kebakaran,"Jl. Raya Cakung Barat, Cakung Barat, Cakung,  Kota Administrasi Jakarta Timur","Jalan Raya Tipar Cakung, Cakung, DKI Jakarta, 13910",-6.1657649610032195,106.93224006655265
45,2020-08-03,Kebakaran,"Jl. Sektor VII, Tangerang, Tangerang, Kota Tangerang","Jalan Sektor VII, Ciledug, Tangerang Kota, Banten, 15151",-6.229115719535354,106.70926833619812
58,2020-08-04,Kebakaran,"Jl. Kamboja, Kebon Pala, Makasar,  Kota Administrasi Jakarta Timur","Jalan Kamboja, Makasar, DKI Jakarta, 13650",-6.263564965344763,106.88023509312433
60,2020-08-04,Kebakaran,"Jl. Rasamala VII, No. 51A, Menteng Dalam, Tebet,  Kota Administrasi Jakarta Selatan","Jalan Rasamala VII 51A, Tebet, DKI Jakarta, 12870",-6.231177581936981,106.83808068995963
61,2020-08-04,Kebakaran,"Jl. Kp. Salo, Kembangan Utara, Kembangan,  Kota Administrasi Jakarta Barat","Kembangan Utara, Kembangan, DKI Jakarta",-6.171019999999942,106.74876000000006
64,2020-08-05,Kebakaran,"Jl.Majalah ( Komplek PWI ), Cipinang Besar Selatan, Jatinegara,  Kota Administrasi Jakarta Timur","Jalan Majalah, Jatinegara, DKI Jakarta, 13380",-6.233093558579056,106.88829824722914
69,2020-08-05,Kebakaran,"Jl.Kamal Raya, Kamal, Kalideres,  Kota Administrasi Jakarta Barat","Jalan Kamal Raya, Kalideres, DKI Jakarta, 11820",-6.104790100387514,106.71024067426528
72,2020-08-05,Kebakaran,"Jl.Mampang Prapatan VII, Tegal Parang, Mampang Prapatan,  Kota Administrasi Jakarta Selatan","Jalan Mampang Prapatan VII, Mampang Prapatan, DKI Jakarta, 12720",-6.247459646637807,106.82431254056046
75,2020-08-05,Kebakaran,"Jl.Pekojan 1, Pekojan, Tambora,  Kota Administrasi Jakarta Barat","Jalan Pekojan II 1, Tambora, DKI Jakarta, 11240",-6.1408625776588295,106.80245536671953
76,2020-08-05,Kebakaran,"Jl.Raya Pasar Minggu Gg.Buntu, Pasar Minggu, Pasar Minggu,  Kota Administrasi Jakarta Selatan","Jalan Raya Pasar Minggu, Pasar Minggu, DKI Jakarta, 12510",-6.269749950743169,106.84524006063361
79,2020-08-06,Kebakaran,"Jl. Suryo No.31, Rawa Barat, Kebayoran Baru,  Kota Administrasi Jakarta Selatan","Jalan Suryo 31, Kebayoran Baru, DKI Jakarta, 12180",-6.2376200203958945,106.81456996445291
80,2020-08-06,Kebakaran,"Jl. kampung Melayu Kecil No.20, Bukit Duri, Tebet,  Kota Administrasi Jakarta Selatan","Jalan Kampung Melayu Kecil I 20, Tebet, DKI Jakarta, 12840",-6.221673101874141,106.86349559377268
81,2020-08-06,Kebakaran,"PT. Integrity Indonesia, Jl. R.S. Fatmawati No.57B, Cilandak barat, Cilandak,  Kota Administrasi Jakarta Selatan","Jalan RS Fatmawati 57B, Cilandak, DKI Jakarta, 12430",-6.287019982136329,106.79524003844489
85,2020-08-06,Kebakaran,"Jl. Kakap V, Penjaringan, Penjaringan,  Kota Administrasi Jakarta Utara","Jalan Kakap, Penjaringan, DKI Jakarta, 14440",-6.100034901838417,106.80455889657172
86,2020-08-06,Kebakaran,"Jl. H. Naba II No.29, Tangerang, Tangerang, Kota Tangerang","Jalan Naba II 29, Karang Tengah, Tangerang Kota, Banten, 15157",-6.224619981937394,106.72042996004245
88,2020-08-07,Kebakaran,"Jl. Surabaya No. 26, Menteng, Menteng,  Kota Administrasi Jakarta Pusat","Jalan Surabaya 26, Menteng, DKI Jakarta, 10310",-6.199320003483123,106.83980997038998
91,2020-08-06,Kebakaran,"Jl. Jelambar Barat II No.2, Jelambar, Grogol Petamburan,  Kota Administrasi Jakarta Barat","Jalan Jelambar Barat III 2, Grogol Petamburan, DKI Jakarta, 11460",-6.14506997919878,106.78331996630101
92,2020-08-07,Kebakaran,"Jl. Tomang Tinggi No.22, Tomang, Grogol Petamburan,  Kota Administrasi Jakarta Barat","Jalan Tomang Tinggi 22, Grogol Petamburan, DKI Jakarta, 11440",-6.172630012115761,106.79611997064023
101,2020-08-07,Kebakaran,"Jl. jati Padang Utara, Jatipadang, Pasar Minggu,  Kota Administrasi Jakarta Selatan","Jalan Jati Padang Utara, Pasar Minggu, DKI Jakarta, 12540",-6.281059946064403,106.8319462911819
102,2020-08-07,Kebakaran,"Jl. Karya Utama, Gandaria Utara, Kebayoran Baru,  Kota Administrasi Jakarta Selatan","Jalan Karya Utama, Kebayoran Baru, DKI Jakarta, 12140",-6.259616676765847,106.79312891960011
108,2020-08-07,Kebakaran,"Jl. Taman Palem Lestari Blok. C21 No. 19, Cengkareng Barat, Cengkareng,  Kota Administrasi Jakarta Barat","Blok C 21, Cengkareng, DKI Jakarta, 11730",-6.135309017965948,106.71916362193178
110,2020-08-08,Kebakaran,"Jl. Kumbang Raya, Pegadungan, Kalideres,  Kota Administrasi Jakarta Barat","Jalan Kumbang Raya, Kalideres, DKI Jakarta, 11830",-6.140971350135148,106.69741744283607
112,2020-08-08,Kebakaran,"Jl. Moh. Mansyur, Duri Utara, Tambora,  Kota Administrasi Jakarta Barat","Duri Utara, Tambora, DKI Jakarta",-6.153419999999926,106.80793000000006
113,2020-08-08,Kebakaran,"Jl. Tanah Pasir, Penjaringan, Penjaringan,  Kota Administrasi Jakarta Utara","Jalan Tanah Pasir, Penjaringan, DKI Jakarta, 14440",-6.1298731236983555,106.79880859957962
115,2020-08-08,Kebakaran,"Jl. Pluit Permata, Pluit, Penjaringan,  Kota Administrasi Jakarta Utara","Pluit, Penjaringan, DKI Jakarta",-6.118699999999933,106.79411000000005
117,2020-08-08,Kebakaran,"Jl.Kebon Pala No..21, Pejagalan, Penjaringan,  Kota Administrasi Jakarta Utara","Pejagalan, Penjaringan, DKI Jakarta",-6.137929999999926,106.78473000000008
118,2020-08-08,Kebakaran,"Jl. Pulogebang, Pulo Gebang, Cakung,  Kota Administrasi Jakarta Timur","Jalan Pulogebang, Cakung, DKI Jakarta, 13950",-6.2136724315482805,106.95557545006591
120,2020-08-08,Kebakaran,"Jl.Menteng Wadas Timur, Pasar Manggis, Setiabudi,  Kota Administrasi Jakarta Selatan","Jalan Menteng Wadas Timur, Setiabudi, DKI Jakarta, 12970",-6.2093114065609765,106.8416403009826
123,2020-08-09,Kebakaran,"Jl.Kebon Manggis 1, Kebon Manggis, Matraman,  Kota Administrasi Jakarta Timur","Jalan Kebon Manggis 1, Matraman, DKI Jakarta, 13150",-6.205362515857691,106.85676633435453
130,2020-08-09,Kebakaran,"Jl. Pantai Indah Utara No.9 Blok AS, Kapuk Muara, Penjaringan,  Kota Administrasi Jakarta Utara","Jalan Pantai Indah Utara II 9, Penjaringan, DKI Jakarta, 14460",-6.116500010768178,106.75918997580146
131,2020-08-09,Kebakaran,"Jl. E2, E3 Dan Gg. F, Pademangan Barat, Pademangan,  Kota Administrasi Jakarta Utara","Pademangan Barat, Pademangan, DKI Jakarta",-6.134389999999939,106.83661000000006
132,2020-08-09,Kebakaran,"Jl. Keamanan Dalam I, Keagungan, Tamansari,  Kota Administrasi Jakarta Barat","Jalan Keamanan, Tamansari, DKI Jakarta, 11130",-6.151299954462473,106.81450159478383
133,2020-08-09,Kebakaran,"Kampung Pedaengan, Jl. Raya Penggilingan, Cakung barat, Cakung,  Kota Administrasi Jakarta Timur","Jalan Raya Penggilingan, Cakung, DKI Jakarta, 13940",-6.203363075419591,106.93518081137483
134,2020-08-09,Kebakaran,"PT. Wintrad Jaya, Jl. Raya Penggilingan, Cakung Barat, Cakung,  Kota Administrasi Jakarta Timur","Jalan Raya Penggilingan, Cakung, DKI Jakarta, 13940",-6.203363075419591,106.93518081137483
143,2020-08-10,Kebakaran,"Jl. Kebon Jeruk Raya No. 6, Kebon jeruk, Kebun Jeruk,  Kota Administrasi Jakarta Barat","Jalan Kebon Jeruk Raya 6, Kebon Jeruk, DKI Jakarta, 11530",-6.197769980038416,106.77267997841011
144,2020-08-10,Kebakaran,"Jl. Jembatan Besi VIII, Jembatan Besi, Tambora,  Kota Administrasi Jakarta Barat","Jalan Jembatan Besi VIII, Tambora, DKI Jakarta, 11290",-6.153105750408352,106.79785529444271
155,2020-08-10,Kebakaran,"Jl. Poncol, No. 53, Gandaria Selatan, Cilandak,  Kota Administrasi Jakarta Selatan","Jalan Poncol 53, Cilandak, DKI Jakarta, 12420",-6.277379539357766,106.7915469115853
159,2020-08-10,Kebakaran,"Jl. Kapuk Sawah, No. 140, Kapuk, Cengkareng,  Kota Administrasi Jakarta Barat","Jalan Kapuk Sawah 140, Cengkareng, DKI Jakarta, 11720",-6.137955461017167,106.75407011557765
164,2020-08-10,Kebakaran,"Jl. Pademangan Timur IV, No. 14, Pademangan Timur, Pademangan,  Kota Administrasi Jakarta Utara","Jalan Pademangan Timur VII 14, Pademangan, DKI Jakarta, 14410",-6.130515909879503,106.84445270240099
165,2020-08-10,Kebakaran,"Jl. Louser Raya, No. 3B, Gunung, Kebayoran Baru,  Kota Administrasi Jakarta Selatan","Jalan Lauser 3B, Kebayoran Baru, DKI Jakarta, 12120",-6.236608670659281,106.7923422028571
167,2020-08-10,Kebakaran,"Jl. Karang Timur Raya, Kel. Karang Timur, Kec. Karang Tengah, Kota Tangerang, Tangerang, Tangerang, Kota Tangerang","Jalan Karang, Karawaci, Tangerang Kota, Banten, 15116",-6.207962144973103,106.61305059141021
170,2020-08-11,Kebakaran,"Jl.KH.Moh Mansyur, Jembatan Lima, Tambora,  Kota Administrasi Jakarta Barat","Jalan KH Moh Mansyur, Tambora, DKI Jakarta, 11250",-6.1447430652230395,106.806976545259
175,2020-08-11,Kebakaran,"Jl.Duri Utara ( Stasiun Kereta Duri ), Duri Selatan, Tambora,  Kota Administrasi Jakarta Barat","Jalan Duri Utara, Tambora, DKI Jakarta, 11270",-6.155620610293798,106.80183297906768
186,2020-08-12,Kebakaran,"Jl. Prepetan Dalam No.72, Kamal, Kalideres,  Kota Administrasi Jakarta Barat","Jalan Prepedan Dalam 72, Kalideres, DKI Jakarta, 11810",-6.114519995690571,106.70364000215363
188,2020-08-13,Kebakaran,"Jl. Srengseng Raya No.12 (Agen Baja Ringan), Srengseng, Kembangan,  Kota Administrasi Jakarta Barat","Jalan Srengseng Raya 12, Kembangan, DKI Jakarta, 11630",-6.2019600096167835,106.75648002268582
192,2020-08-13,Kebakaran,"Jl. Kramat Raya No. 85, Paseban, Senen,  Kota Administrasi Jakarta Pusat","Jalan Kramat Raya 85, Senen, DKI Jakarta, 10450",-6.185231022910774,106.84454875538765
193,2020-08-13,Kebakaran,"Jl. Lanji , Papanggo, Tanjung Priok,  Kota Administrasi Jakarta Utara",Kota Administrasi Jakarta Utara,-6.139129999999966,106.86195000000004
194,2020-08-13,Kebakaran,"Jl. Kp Walang ( Depan Unv Bunda Mulia ), Ancol, Pademangan,  Kota Administrasi Jakarta Utara","Ancol, Pademangan, DKI Jakarta",-6.130109999999945,106.81657000000007
201,2020-08-13,Kebakaran,"Jl. Kayu Manis V No. 17, Kayu Manis, Matraman,  Kota Administrasi Jakarta Timur","Jalan Kayu Manis I 17, Matraman, DKI Jakarta, 13120",-6.19728999035307,106.85995000733993
202,2020-08-13,Kebakaran,"Jl. Otista  Raya No. 18, Bidara Cina, Jatinegara,  Kota Administrasi Jakarta Timur","Jalan Otista Raya, Jatinegara, DKI Jakarta, 13330",-6.238069960958356,106.86859506036555
203,2020-08-13,Kebakaran,"Jl. Perumahan AL. blok E , Bekasi, Bekasi, Kota Bekasi","Jalan Perumahan Taman Kota Blok V, Bekasi Timur, Bekasi Kota, Jawa Barat, 17112",-6.240026334618481,107.0083273298681
228,2020-08-14,Kebakaran,"Jl. Pulo Buaran (PT. Dirga Putra), Jatinegara, Cakung,  Kota Administrasi Jakarta Timur","Jatinegara, Cakung, DKI Jakarta",-6.194219999999973,106.91048000000006
231,2020-08-14,Kebakaran,"PT.Wintrad Jaya Jl.Raya Penggilingan, Cakung Barat, Cakung,  Kota Administrasi Jakarta Timur","Jalan Raya Penggilingan, Cakung, DKI Jakarta, 13940",-6.203363075419591,106.93518081137483
234,2020-08-14,Kebakaran,"Jl.Jeruk Purut ( SDN 05 ), Cilandak Timur, Pasar Minggu,  Kota Administrasi Jakarta Selatan","Jalan Jeruk Purut 5, Pasar Minggu, DKI Jakarta, 12560",-6.28455926535458,106.81157053088882
235,2020-08-14,Kebakaran,"Jl.Pejaten Barat 2 Gg.Kamboja, Pejaten Barat, Pasar Minggu,  Kota Administrasi Jakarta Selatan","Jalan Pejaten Barat 2, Pasar Minggu, DKI Jakarta, 12550",-6.276130003983212,106.82105998826262
236,2020-08-14,Kebakaran,"Jl.Nota Sirin No..34, Ragunan, Pasar Minggu,  Kota Administrasi Jakarta Selatan","Ragunan, Pasar Minggu, DKI Jakarta",-6.300869999999975,106.82124000000005
237,2020-08-14,Kebakaran,"Jl.Tebet Timur Dalam XI, Tebet Timur, Tebet,  Kota Administrasi Jakarta Selatan","Jalan Tebet Timur Dalam XI, Tebet, DKI Jakarta, 12820",-6.226345346707454,106.85819431573593
238,2020-08-14,Kebakaran,"Jl.Kelapa 2, Cilincing, Cilincing,  Kota Administrasi Jakarta Utara","Cilincing, DKI Jakarta",-6.101659999999981,106.93839000000008
248,2020-08-15,Kebakaran,"Jl. Sudiro IV, Cempaka Baru, Kemayoran,  Kota Administrasi Jakarta Pusat","Jalan Sudiro, Kemayoran, DKI Jakarta, 10640",-6.170108843323076,106.86367478206495
249,2020-08-15,Kebakaran,"PT. Dwitama, Jl. Cakung Cilincing, Semper Barat, Cilincing,  Kota Administrasi Jakarta Utara","Jalan Cakung Cilincing, Cilincing, DKI Jakarta, 14140",-6.153629914990406,106.94074761864111
255,2020-08-16,Kebakaran,"Jl. Raya Bogor , Rs Harkit, Rambutan, Ciracas,  Kota Administrasi Jakarta Timur","Jalan Raya Bogor, Ciracas, DKI Jakarta, 13750",-6.294614338947679,106.87196521450608
260,2020-08-16,Kebakaran,"Jl. Raya Kebayoran Lama No. 41, Grogol Selatan, Kebayoran Lama,  Kota Administrasi Jakarta Selatan","Jalan Kebayoran Lama Raya 41, Kebayoran Lama, DKI Jakarta, 12220",-6.226607662088678,106.778537723485
271,2020-08-17,Kebakaran,"Jl. Gelora, No. 1, Gelora, Tanah Abang,  Kota Administrasi Jakarta Pusat","Jalan Gelora 1, Tanah Abang, DKI Jakarta, 10270",-6.212079984234677,106.79705002661655
273,2020-08-16,Kebakaran,"Jl. Rawa Bahagia, Pondok Kopi, Duren Sawit,  Kota Administrasi Jakarta Timur","Jalan Rawa Bahagia, Duren Sawit, DKI Jakarta, 13460",-6.2348276543052235,106.94179026116733
274,2020-08-17,Kebakaran,"Jl. Ex AURI, Kuningan Timur, Setiabudi,  Kota Administrasi Jakarta Selatan","Kuningan Timur, Setiabudi, DKI Jakarta",-6.229939999999942,106.82723000000004
276,2020-08-17,Kebakaran,"Komplek DKI Blok L2, Sunter Agung, Tanjung Priok,  Kota Administrasi Jakarta Utara",Kota Administrasi Jakarta Utara,-6.139129999999966,106.86195000000004
278,2020-08-18,Kebakaran,"Jl.Raya Centex, Ciracas, Ciracas,  Kota Administrasi Jakarta Timur","Ciracas, DKI Jakarta",-6.328499999999963,106.87888000000004
279,2020-08-18,Kebakaran,"Jl.Pakis No..26, Sukabumi Utara, Kebun Jeruk,  Kota Administrasi Jakarta Barat","Jalan Fakis, Kebon Jeruk, DKI Jakarta, 11540",-6.21059994968148,106.77547509166203
288,2020-08-18,Kebakaran,"Jl. Kartini X B Dalam, Kartini, Sawah Besar,  Kota Administrasi Jakarta Pusat","Jalan Kartini X, Sawah Besar, DKI Jakarta, 10750",-6.151444266431809,106.83185247908273
290,2020-08-19,Kebakaran,"Jl. Ciputat Raya gg. Kramat, Pondok Pinang, Kebayoran Lama,  Kota Administrasi Jakarta Selatan","Jalan Ciputat Raya, Kebayoran Lama, DKI Jakarta, 12230",-6.2690054253897065,106.77512652289961
304,2020-08-19,Kebakaran,"Jl. Panca Wardi, Kayu Putih, Pulogadung,  Kota Administrasi Jakarta Timur","Jalan Pancawardi, Pulogadung, DKI Jakarta, 13210",-6.17986100047428,106.88179922447816
310,2020-08-20,Kebakaran,"Jl.Melati, Pulau Pari, Kep. Seribu Selatan,  Kab. Administrasi Kep. Seribu","Seribu, Lampung",-5.57493999999997,105.22969000000006
317,2020-08-20,Kebakaran,"Jl.Brigif Raya ( Tropical Resident ), Ciganjur, Jagakarsa,  Kota Administrasi Jakarta Selatan","Jalan Brigif, Jagakarsa, DKI Jakarta, 12630",-6.344090456975132,106.80142566700812
320,2020-08-21,Kebakaran,"Jl.Delima 13 ( Belakang UHAMKA ), Rambutan, Ciracas,  Kota Administrasi Jakarta Timur","Jalan Delima 13, Cipayung, DKI Jakarta, 13820",-6.313780004304732,106.89149999380646
324,2020-08-21,Kebakaran,"Jl. Pengadegan Selatan V No.2, Pengadegan, Pancoran,  Kota Administrasi Jakarta Selatan","Jalan Pengadegan Selatan 2, Pancoran, DKI Jakarta, 12770",-6.251610003528938,106.85165996982329
325,2020-08-21,Kebakaran,"Jl. Kavling Polri Blok B VII/710 No.39, Jelambar, Grogol Petamburan,  Kota Administrasi Jakarta Barat","Jelambar, Grogol Petamburan, DKI Jakarta",-6.158579999999972,106.78480000000008
326,2020-08-21,Kebakaran,"Jl. Kembangan Selatan, Kembangan Selatan, Kembangan,  Kota Administrasi Jakarta Barat","Jalan Kembangan Selatan, Kembangan, DKI Jakarta, 11610",-6.185180295640862,106.72738639633147
327,2020-08-21,Kebakaran,"jl. M. Sardini, Bale Kambang, Kramat Jati,  Kota Administrasi Jakarta Timur","Bale Kambang, Kramatjati, DKI Jakarta",-6.281099999999981,106.85516000000007
328,2020-08-22,Kebakaran,"Jl. Kamboja Ujung, Kota Bambu Utara, Palmerah,  Kota Administrasi Jakarta Barat","Jalan Kamboja Ujung, Palmerah, DKI Jakarta, 11420",-6.183359039401122,106.80305159223926
346,2020-08-22,Kebakaran,"Jl. Sultan Hasanudin Dalam No. 1, Kramat Pela, Kebayoran Baru,  Kota Administrasi Jakarta Selatan","Jalan Sultan Hasanudin 1, Kebayoran Baru, DKI Jakarta, 12160",-6.243061193884406,106.80279917030533
347,2020-08-22,Kebakaran,"Jl. kayu Besar dalam, Cengkareng Timur, Cengkareng,  Kota Administrasi Jakarta Barat","Jalan Kayu Besar Dalam, Cengkareng, DKI Jakarta, 11730",-6.127517475493771,106.73526329719348
349,2020-08-23,Kebakaran,"Jl.Letjen MT Haryono ( Pintu  Tol Tebet ), Tebet Barat, Tebet,  Kota Administrasi Jakarta Selatan","Jalan Letjen MT Haryono, Tebet, DKI Jakarta, 12810",-6.242906552845549,106.84851569845809
350,2020-08-23,Kebakaran,"Jl.Al - Barkah Ujung, Rawa Buaya, Cengkareng,  Kota Administrasi Jakarta Barat","Jalan Al Barkah, Cengkareng, DKI Jakarta, 11740",-6.164191118696527,106.7294283639395
351,2020-08-23,Kebakaran,"Jl.Taman Sari 9, Pinangsia, Tamansari,  Kota Administrasi Jakarta Barat","Jalan Taman Sari 9, Tamansari, DKI Jakarta, 11160",-6.160789987147226,106.82676999216284
353,2020-08-23,Kebakaran,"Jl.Karang Tengah Raya No..30A, Lebak Bulus, Cilandak,  Kota Administrasi Jakarta Selatan","Jalan Karang Tengah Raya 30A, Cilandak, DKI Jakarta, 12440",-6.309725370998256,106.78097764106364
357,2020-08-24,Kebakaran,"Jl. Raya Tipar Cakung, PT. Jaya Kencana, Cakung Barat, Cakung,  Kota Administrasi Jakarta Timur","Jalan Raya Tipar Cakung, Cakung, DKI Jakarta, 13910",-6.1657649610032195,106.93224006655265
358,2020-08-24,Kebakaran,"Jl. Raya Hamkam, Cilangkap, Cipayung,  Kota Administrasi Jakarta Timur","Jalan Raya Hankam Cilangkap, Cipayung, DKI Jakarta, 13870",-6.330674966485553,106.90405009170252
377,2020-08-25,Kebakaran,"Dermaga Timur Muara Baru, Penjaringan, Penjaringan,  Kota Administrasi Jakarta Utara","Penjaringan, DKI Jakarta",-6.131649999999979,106.79270000000008
378,2020-08-25,Kebakaran,"Jl. Kakap 2 No. 18, Jati, Pulogadung,  Kota Administrasi Jakarta Timur","Jalan Kakap 2 18, Pulogadung, DKI Jakarta, 13220",-6.1944199847962835,106.89724997938481
382,2020-08-26,Kebakaran,"Jl. Pisangan Lama III, Pisangan Timur, Pulogadung,  Kota Administrasi Jakarta Timur","Jalan Pisangan Lama III, Pulogadung, DKI Jakarta, 13230",-6.2128047810069384,106.8787934977097
383,2020-08-25,Kebakaran,"Jl. Jembatan Besi Raya Gg SMP 159, Jembatan Besi, Tambora,  Kota Administrasi Jakarta Barat","Jalan Jembatan Besi Raya, Tambora, DKI Jakarta, 11290",-6.152088635675705,106.7978828229802
384,2020-08-25,Kebakaran,"Jl. Kp Pesanggrahan , Meruya Utara, Kembangan,  Kota Administrasi Jakarta Barat","Jalan Pesanggrahan, Kembangan, DKI Jakarta, 11620",-6.196427164867669,106.7560001479532
385,2020-08-25,Kebakaran,"Jl. Mangga Besar 9, Tangki, Tamansari,  Kota Administrasi Jakarta Barat","Jalan Mangga Besar 9, Tamansari, DKI Jakarta, 11160",-6.147329991751974,106.82361001466569
388,2020-08-26,Kebakaran,"Jl.Semanan Raya, Semanan, Kalideres,  Kota Administrasi Jakarta Barat","Jalan Semanan Raya, Kalideres, DKI Jakarta, 11850",-6.159794950466505,106.70630507017779
389,2020-08-26,Kebakaran,"Jl.SejahterA, Cengkareng Timur, Cengkareng,  Kota Administrasi Jakarta Barat","Cengkareng Timur, Cengkareng, DKI Jakarta",-6.137309999999957,106.73577000000006
398,2020-08-27,Kebakaran,"Jl. E Gg. No.8, Karang Anyar , Sawah Besar,  Kota Administrasi Jakarta Pusat","Jalan Karang Anyar 8, Sawah Besar, DKI Jakarta, 10740",-6.150030012312357,106.82731003818441
399,2020-08-27,Kebakaran,"Jl. Kebon Bawang VI, Kebon Bawang, Tanjung Priok,  Kota Administrasi Jakarta Utara","Jalan Kebon Bawang VI, Tanjung Priok, DKI Jakarta, 14320",-6.1147949640242345,106.89170505706767
400,2020-08-27,Kebakaran,"Jl. Mega Kuningan Timur II, Kuningan Timur, Setiabudi,  Kota Administrasi Jakarta Selatan","Jalan Mega Kuningan Timur, Setiabudi, DKI Jakarta, 12950",-6.226485294419562,106.82763717186361
401,2020-08-27,Kebakaran,"Jl. raya Pulogebang, Pulo Gebang, Cakung,  Kota Administrasi Jakarta Timur","Jalan Raya Pulo Gebang, Cakung, DKI Jakarta, 13950",-6.204389545673346,106.95551639876608
409,2020-08-28,Kebakaran,"Jl. Kampung Rawa Sawah No.8, Kampung Rawa, Johar Baru,  Kota Administrasi Jakarta Pusat","Jalan Rawa Sawah 8, Johar Baru, DKI Jakarta, 10550",-6.1785915150207416,106.85236757008937
416,2020-08-28,Kebakaran,"Jl. Perum Citra 2, Pegadungan, Kalideres,  Kota Administrasi Jakarta Barat","Pegadungan, Kalideres, DKI Jakarta",-6.129859999999951,106.70373000000006
417,2020-08-28,Kebakaran,"Jl. D.I Panjaitan ( Dekat Kampus Mpu Tantular ), rawa bunga, Jatinegara,  Kota Administrasi Jakarta Timur","Jalan D I Panjaitan, Jatinegara, DKI Jakarta, 13340",-6.2335245210177215,106.87643933663719
419,2020-08-28,Kebakaran,"Jl. Rawa Kepiting, Jatinegara, Cakung,  Kota Administrasi Jakarta Timur","Jalan Rawa Kepiting, Cakung, DKI Jakarta, 13930",-6.1951004895857205,106.91959384057519
420,2020-08-29,Kebakaran,"Jl. Rumah Susun Cengkareng Indah Blok Astor No. 1, Cengkareng Timur, Cengkareng,  Kota Administrasi Jakarta Barat","Jalan Rumah Susun Cengkareng Indah 1, Cengkareng, DKI Jakarta, 11730",-6.132090071999178,106.73896921933589
421,2020-08-29,Kebakaran,"Jl. Lingkungan 3, Tegal Alur, Kalideres,  Kota Administrasi Jakarta Barat","Jalan Lingkungan 3, Kalideres, DKI Jakarta, 11820",-6.116670880343816,106.71300210230777
422,2020-08-29,Kebakaran,"Jl.Gandaria 2, Pekayon, Pasar Rebo,  Kota Administrasi Jakarta Timur","Jalan Gandaria 2, Pasar Rebo, DKI Jakarta, 13790",-6.3444000186139675,106.8650900418242
423,2020-08-29,Kebakaran,"Jl.Cipayung Setu, Cipayung, Cipayung,  Kota Administrasi Jakarta Timur","Jalan Setu Cipayung, Cipayung, DKI Jakarta, 13840",-6.3279929197218845,106.90058762198386
427,2020-08-29,Kebakaran,"Jl.Raya Bogor, Ciracas, Ciracas,  Kota Administrasi Jakarta Timur","Jalan Raya Bogor, Ciracas, DKI Jakarta, 13740",-6.324205448458386,106.86460408047223
431,2020-08-30,Kebakaran,"Jl.Basuki Rahmat ( Ps.Gembrong ), Cipinang Besar Selatan, Jatinegara,  Kota Administrasi Jakarta Timur","Jalan Basuki Rahmat, Jatinegara, DKI Jakarta, 13360",-6.225494084186863,106.87750503683908
432,2020-08-29,Kebakaran,"Jl.H.Sanyar Gg.Merdeka 4, Penggilingan, Cakung,  Kota Administrasi Jakarta Timur","Jalan H Sanyar, Cakung, DKI Jakarta, 13940",-6.203586581350596,106.93941975219708
434,2020-08-29,Kebakaran,"Jl.Katelia Raya No..16, Kota Bambu Utara, Palmerah,  Kota Administrasi Jakarta Barat","Jalan Katalia Raya 16, Palmerah, DKI Jakarta, 11420",-6.182510012845739,106.79916997756771
435,2020-08-29,Kebakaran,"Jl.MSDM No..8 Kemang Selatan, Cipete Selatan, Cilandak,  Kota Administrasi Jakarta Selatan","Cipete Selatan, Cilandak, DKI Jakarta",-6.272099999999966,106.80307000000005
438,2020-08-30,Kebakaran,"Jl. Komplek PLN Blok A1, Kelapa Gading Timur, Kelapa Gading,  Kota Administrasi Jakarta Utara","Jalan Komplek PLN, Kelapa Gading, DKI Jakarta, 14240",-6.175289787126582,106.90434875828784
444,2020-08-30,Kebakaran,"Jl. Bendungan Hilir No.118, Bendungan Hilir, Tanah Abang,  Kota Administrasi Jakarta Pusat","Jalan Bendungan Hilir 118, Tanah Abang, DKI Jakarta, 10210",-6.208720014527771,106.81212001797377
445,2020-08-30,Kebakaran,"Jl. Tipar Cakung, Cakung Barat, Cakung,  Kota Administrasi Jakarta Timur","Jalan Tipar Cakung, Cakung, DKI Jakarta, 13910",-6.158995535802791,106.93312666485974
447,2020-08-31,Kebakaran,"Asrama Yon Zikon 13, Srengseng Sawah, Jagakarsa,  Kota Administrasi Jakarta Selatan","Jalan Srengseng Sawah 13, Jagakarsa, DKI Jakarta, 12640",-6.348390014073061,106.82016002331869
461,2020-08-31,Kebakaran,"Jl. Semanan Raya, Semanan, Kalideres,  Kota Administrasi Jakarta Barat","Jalan Semanan Raya, Kalideres, DKI Jakarta, 11850",-6.159794950466505,106.70630507017779
463,2020-08-31,Kebakaran,"Jl. Kopaja, Rawa Buaya, Cengkareng,  Kota Administrasi Jakarta Barat","Jalan Kopaja, Cengkareng, DKI Jakarta, 11740",-6.162801774445539,106.73461265431277
464,2020-08-31,Kebakaran,"Jl. Menceng Raya, Tegal Alur, Kalideres,  Kota Administrasi Jakarta Barat","Jalan Raya Menceng, Kalideres, DKI Jakarta, 11820",-6.124100233013903,106.71861412320689
465,2020-08-31,Kebakaran,"Jl. H. Kelik, Gg. Lada, Kelapa Dua, Kebun Jeruk,  Kota Administrasi Jakarta Barat","Jalan H Kelik, Kebon Jeruk, DKI Jakarta, 11550",-6.207768027309933,106.7676066528038
467,2020-08-03,Kebakaran,"Jl. Sagu, Jagakarsa, Jagakarsa,  Kota Administrasi Jakarta Selatan","Jalan Sagu, Jagakarsa, DKI Jakarta, 12620",-6.3171371173280635,106.81841305794983
468,2020-08-31,Kebakaran,"Komplek Sangrila Indah 2, Jl. Sakti 6 No. 13, Petukangan Selatan, Pesanggrahan,  Kota Administrasi Jakarta Selatan","Jalan Sakti 6 13, Pesanggrahan, DKI Jakarta, 12340",-6.240736711995031,106.75969187540018
1072,2020-04-01,Kebakaran,"Jl. Waru, Kebagusan, Pasar Minggu,  Kota Administrasi Jakarta Selatan","Jalan Waru, Pasar Minggu, DKI Jakarta, 12520",-6.313225398633723,106.83368866351564
1073,2020-04-01,Kebakaran,"Jl. Tiar (Titik Kenal Elnusa), Rawa Badak Selatan, Koja,  Kota Administrasi Jakarta Utara","Jalan Tiar, Koja, DKI Jakarta, 14230",-6.133108051889744,106.89941859054383
1074,2020-04-01,Kebakaran,"Jl. Pangeran, Bale Kambang, Kramat Jati,  Kota Administrasi Jakarta Timur","Jalan Pangeran, Kramatjati, DKI Jakarta, 13530",-6.28130567168746,106.8529998147924
1080,2020-04-01,Kebakaran,"Jl.Teluk Semangka Blok C No..2, Duren Sawit, Duren Sawit,  Kota Administrasi Jakarta Timur","Jalan Teluk Semangka 2, Duren Sawit, DKI Jakarta, 13440",-6.239369016448715,106.91065379781413
1091,2020-04-02,Kebakaran,"Jl. Kayu Tinggi, Cakung Timur, Cakung,  Kota Administrasi Jakarta Timur","Jalan Kayu Tinggi, Cakung, DKI Jakarta, 13910",-6.165532195767379,106.9486707642305
1092,2020-04-02,Kebakaran,"Jl. Kartini, Kartini, Sawah Besar,  Kota Administrasi Jakarta Pusat","Jalan Kartini, Sawah Besar, DKI Jakarta, 10750",-6.154684944150354,106.83576507346507
1093,2020-04-02,Kebakaran,"Jl. Basuki Gg. Anggrek, Cilangkap, Cipayung,  Kota Administrasi Jakarta Timur","Jalan Basuki, Cipayung, DKI Jakarta, 13870",-6.336093301150519,106.9062532088379
1094,2020-04-03,Kebakaran,"Jl. Raya Bogor No.13, Kramat Jati, Kramat Jati,  Kota Administrasi Jakarta Timur","Jalan Raya Bogor 13, Kramatjati, DKI Jakarta, 13510",-6.272470004052138,106.86703003331417
1095,2020-04-03,Kebakaran,"Jl. Puskesmas, Kalisari, Pasar Rebo,  Kota Administrasi Jakarta Timur","Jalan Puskesmas, Pasar Rebo, DKI Jakarta, 13790",-6.334637409607751,106.85180987229788
1096,2020-04-03,Kebakaran,"Jl. Pangeran Antasari , Cipete Selatan, Cilandak,  Kota Administrasi Jakarta Selatan","Jalan Pangeran Antasari, Cilandak, DKI Jakarta, 12410",-6.270134627572547,106.80876603617264
1097,2020-04-03,Kebakaran,"Jl. Bakti Cilandak KKO, Cilandak Timur, Pasar Minggu,  Kota Administrasi Jakarta Selatan","Jalan Bakti, Pasar Minggu, DKI Jakarta, 12560",-6.304864379660194,106.81065500888477
1098,2020-04-03,Kebakaran,"Jl. Raya Pasar Minggu No. 29, duren Tiga, Pancoran,  Kota Administrasi Jakarta Selatan","Jalan Pasar Minggu Raya 29, Pancoran, DKI Jakarta, 12760",-6.254911798341317,106.842712365685
1103,2020-04-04,Kebakaran,"Jl. Cikini Raya (Depan Laba - Laba), Cikini, Menteng,  Kota Administrasi Jakarta Pusat","Jalan Cikini Raya, Menteng, DKI Jakarta, 10330",-6.188044939743378,106.83621509784655
1110,2020-04-05,Kebakaran,"Jl.Jembatan Besi 12, Jembatan Besi, Tambora,  Kota Administrasi Jakarta Barat","Jalan Jembatan Besi I 12, Tambora, DKI Jakarta, 11290",-6.1491499962979645,106.79726996775588
1114,2020-04-05,Kebakaran,"Jl. Gading Kirana Blok 10 No.57, Kelapa Gading Barat, Kelapa Gading,  Kota Administrasi Jakarta Utara","Jalan Gading Kirana 10, Kelapa Gading, DKI Jakarta, 14240",-6.1431020080696195,106.8968178041035
1115,2020-04-05,Kebakaran,"Jl. Raya Kembangan, Kembangan Selatan, Kembangan,  Kota Administrasi Jakarta Barat",Kantor Walikota Administrasi Jakarta Barat,-6.184829999999977,106.73777000000007
1116,2020-04-05,Kebakaran,"Jl. Pengadegan Barat IV, Pengadegan, Pancoran,  Kota Administrasi Jakarta Selatan","Jalan Pengadegan Barat, Pancoran, DKI Jakarta, 12770",-6.249441718281414,106.85123270962237
1118,2020-04-05,Kebakaran,"Jl. Panca Warga No.37, Cipinang Besar Selatan, Jatinegara,  Kota Administrasi Jakarta Timur","Jalan Panca Warga V 37, Jatinegara, DKI Jakarta, 13360",-6.238913854243308,106.88202714537505
1122,2020-04-06,Kebakaran,"Jl. Jambu Air, No. 45, Pegadungan, Kalideres,  Kota Administrasi Jakarta Barat","Jalan Jambu Air 45, Kalideres, DKI Jakarta, 11830",-6.1409555475892725,106.71541578472252
1127,2020-04-06,Kebakaran,"Jl. Sukapura, Gg. Salon, Sukapura, Cilincing,  Kota Administrasi Jakarta Utara","Suka Pura, Cilincing, DKI Jakarta",-6.148339999999962,106.92778000000004
1130,2020-04-06,Kebakaran,"Jl. Muara Karang Raya, Blok A6 Utara, No. 217, Pluit, Penjaringan,  Kota Administrasi Jakarta Utara","Jalan Muara Karang Raya A/6, Penjaringan, DKI Jakarta, 14450",-6.116489994393888,106.77942003439153
1131,2020-04-07,Kebakaran,"Jl.Mega Kuningan Barat No.3, Kuningan Timur, Setiabudi,  Kota Administrasi Jakarta Selatan","Jalan Mega Kuningan Barat 3, Setiabudi, DKI Jakarta, 12950",-6.228140004085446,106.82456999403638
1133,2020-04-07,Kebakaran,"Jl. Mangga Raya No..8 A ( Toko Pismanis ), Duri Kepa, Kebun Jeruk,  Kota Administrasi Jakarta Barat","Jalan Mangga Raya 8, Kebon Jeruk, DKI Jakarta, 11510",-6.17314000901446,106.77775999846762
1137,2020-04-08,Kebakaran,"Jl.Kejaksaan 2 No..10, Ciledug, Ciledug, Kota Tangerang","Jalan Kejaksaan II 10, Larangan, Tangerang Kota, Banten, 15156",-6.2264433436363635,106.73666246915928
1141,2020-04-08,Kebakaran,"Jl. H. Ririn / Adhiyaksa II, Lebak Bulus, Cilandak,  Kota Administrasi Jakarta Selatan","Lebak Bulus, Cilandak, DKI Jakarta",-6.30007999999998,106.77930000000003
1144,2020-04-08,Kebakaran,"Jl. Tipar Cakung, Semper Barat, Cilincing,  Kota Administrasi Jakarta Utara","Jalan Tipar Cakung, Cilincing, DKI Jakarta, 14130",-6.132606368093237,106.92050833617766
1147,2020-04-09,Kebakaran,"kolintamil Jl. Pelabuhan Pos 9, Tanjung Priok, Tanjung Priok,  Kota Administrasi Jakarta Utara","Jalan Pelabuhan Raya, Tanjung Priok, DKI Jakarta, 14310",-6.107311697989149,106.8866390310385
1148,2020-04-09,Kebakaran,"Jl. Empang Bahagia, Gg. N, No. 13, Grogol, Grogol Petamburan,  Kota Administrasi Jakarta Barat","Jalan Empang Bahagia 13, Grogol Petamburan, DKI Jakarta, 11460",-6.158439994863443,106.7889700395935
1149,2020-04-09,Kebakaran,"Jl. Kerta Jaya, Penjaringan, Penjaringan,  Kota Administrasi Jakarta Utara","Jalan Kerta Jaya, Penjaringan, DKI Jakarta, 14440",-6.134266456748876,106.79957612981488
1153,2020-04-10,Kebakaran,"Jl.Adhi Karya No..15, Kedoya Selatan, Kebun Jeruk,  Kota Administrasi Jakarta Barat","Jalan Adhi Karya I 15, Kebon Jeruk, DKI Jakarta, 11520",-6.1775688648650355,106.75679607405827
1157,2020-04-10,Kebakaran,"Jl.Karang Tengah 1 No..12, Lebak Bulus, Cilandak,  Kota Administrasi Jakarta Selatan","Jalan Karang Tengah 1 12, Cilandak, DKI Jakarta, 12440",-6.310549996006557,106.78206997308047
1158,2020-04-10,Kebakaran,"Jl.Camar 3 Blok C 27, Sukapura, Cilincing,  Kota Administrasi Jakarta Utara","Jalan Camar 3, Cilincing, DKI Jakarta, 14130",-6.115842568157774,106.92231339211722
1160,2020-04-10,Kebakaran,"Jl.Kamal Raya No..11, Tegal Alur, Kalideres,  Kota Administrasi Jakarta Barat","Jalan Kamal Raya 11, Kalideres, DKI Jakarta, 11820",-6.122970001829302,106.72107997663369
1161,2020-04-11,Kebakaran,"Jl. Karet Gugusan, Karet, Setiabudi,  Kota Administrasi Jakarta Selatan","Karet, Setiabudi, DKI Jakarta",-6.213739999999973,106.82634000000007
1162,2020-04-10,Kebakaran,"Jl. Kamal Raya, Tegal Alur, Kalideres,  Kota Administrasi Jakarta Barat","Jalan Kamal Raya, Kalideres, DKI Jakarta, 11820",-6.104790100387514,106.71024067426528
1163,2020-04-11,Kebakaran,"Jl. Buaran lll, Klender, Duren Sawit,  Kota Administrasi Jakarta Timur","Klender, Duren Sawit, DKI Jakarta",-6.221209999999928,106.90722000000005
1164,2020-04-11,Kebakaran,"Jl. SMA 14 Jakarta No..19, Cawang, Kramat Jati,  Kota Administrasi Jakarta Timur","Jalan SMA 14 19, Kramatjati, DKI Jakarta, 13580",-6.258129992642495,106.86901998094703
1170,2020-04-11,Kebakaran,"Jl. Gading Kirana, Kelapa Gading Barat, Kelapa Gading,  Kota Administrasi Jakarta Utara","Jalan Gading Kirana, Kelapa Gading, DKI Jakarta, 14240",-6.145779851387901,106.90117985965657
1171,2020-04-11,Kebakaran,"Jl. Pulo Nangka II, Kayu Putih, Pulogadung,  Kota Administrasi Jakarta Timur","Jalan Pulo Nangka 2, Pulogadung, DKI Jakarta, 13260",-6.178070483756475,106.89344791131579
1172,2020-04-11,Kebakaran,"Jl. Bekasi Timur IV, Cipinang Besar Utara, Jatinegara,  Kota Administrasi Jakarta Timur","Jalan Bekasi Timur IV, Jatinegara, DKI Jakarta, 13370",-6.21817584844032,106.87775903320602
1177,2020-04-12,Kebakaran,"Jl. Teluk Semangka, Blok C4, No. 7 (Komplek AL), Duren Sawit, Duren Sawit,  Kota Administrasi Jakarta Timur","Jalan Teluk Semangka 7, Duren Sawit, DKI Jakarta, 13440",-6.240285014833258,106.91053420647532
1180,2020-04-12,Kebakaran,"Komplek Jembatan Dua, Penjaringan, Penjaringan,  Kota Administrasi Jakarta Utara","Penjaringan, DKI Jakarta",-6.131649999999979,106.79270000000008
1181,2020-04-12,Kebakaran,"Jl. Tipar Cakung, Gg. Sengon, Sukapura, Cilincing,  Kota Administrasi Jakarta Utara","Jalan Tipar Cakung, Cilincing, DKI Jakarta, 14140",-6.145746660353244,106.92308585822634
1182,2020-04-12,Kebakaran,"Jl. Panglima Polim, No. 29, Gandaria Utara, Kebayoran Baru,  Kota Administrasi Jakarta Selatan","Jalan Panglima Polim V 29, Kebayoran Baru, DKI Jakarta, 12160",-6.251610003528938,106.79818996544844
1183,2020-04-12,Kebakaran,"Jl. Ciputat Raya, No. 18, Pondok Pinang, Kebayoran Lama,  Kota Administrasi Jakarta Selatan","Jalan Ciputat Raya 18, Kebayoran Lama, DKI Jakarta, 12230",-6.285329980908585,106.77171002457465
1184,2020-04-13,Kebakaran,"Jl. Agung Timur IX, Blok N2, Sunter Agung, Tanjung Priok,  Kota Administrasi Jakarta Utara","Jalan Agung Timur I 2, Tanjung Priok, DKI Jakarta, 14350",-6.144389997303662,106.87767999566984
1185,2020-04-13,Kebakaran,"Jl. H. Ashari, Kedoya Selatan, Kebun Jeruk,  Kota Administrasi Jakarta Barat","Kedoya Selatan, Kebon Jeruk, DKI Jakarta",-6.184159999999963,106.76406000000009
1188,2020-04-13,Kebakaran,"Jl.Empang Tanah No..80 ( Masdjid Al - Husnah ), Klender, Duren Sawit,  Kota Administrasi Jakarta Timur","Jalan Empang, Duren Sawit, DKI Jakarta, 13470",-6.223079974866977,106.9066606850442
1192,2020-04-13,Kebakaran,"Jl.Panglima Polim Raya No..61, Melawai, Kebayoran Baru,  Kota Administrasi Jakarta Selatan","Jalan Panglima Polim I 61, Kebayoran Baru, DKI Jakarta, 12160",-6.247588983360458,106.79936490723964
1193,2020-04-13,Kebakaran,"Jl.Puri Indah Raya Blok A No..16, Kembangan selatan, Kembangan,  Kota Administrasi Jakarta Barat","Jalan Puri Indah Raya 16, Kembangan, DKI Jakarta, 11610",-6.187099984934136,106.73557002411019
1206,2020-04-13,Kebakaran,"Jl.Empang Bahagia Raya No..1H, Jelambar, Grogol Petamburan,  Kota Administrasi Jakarta Barat","Jalan Empang Bahagia 1H, Grogol Petamburan, DKI Jakarta, 11460",-6.159049987867036,106.79039999227524
1207,2020-04-13,Kebakaran,"Jl.Bakti 1 ( Masjid Al - Zamiah ), Kapuk, Cengkareng,  Kota Administrasi Jakarta Barat","Jalan Bakti, Cengkareng, DKI Jakarta, 11720",-6.143729943383356,106.74123007186748
1208,2020-04-13,Kebakaran,"Jl.Flamboyan Gg.Jaya 1 ( SDN 16 Cengkareng ), Cengkareng Barat, Cengkareng,  Kota Administrasi Jakarta Barat","Jalan Flamboyan 1, Cengkareng, DKI Jakarta, 11730",-6.132370012873963,106.72639997057917
1214,2020-04-14,Kebakaran,"Jl.Pasar Pagi, Cilincing, Cilincing,  Kota Administrasi Jakarta Utara","Cilincing, DKI Jakarta",-6.101659999999981,106.93839000000008
1215,2020-04-13,Kebakaran,"Jl.Bangka VIII, Pela Mampang, Mampang Prapatan,  Kota Administrasi Jakarta Selatan","Jalan Bangka VIII, Mampang Prapatan, DKI Jakarta, 12720",-6.249283011895068,106.82013676050904
1217,2020-04-14,Kebakaran,"Jl.Tanggul Banjir Kanal BArat ( Pasar Gili ), Jati Pulo, Palmerah,  Kota Administrasi Jakarta Barat","Jati Pulo, Palmerah, DKI Jakarta",-6.1790399999999295,106.80234000000007
1219,2020-04-13,Kebakaran,"Jl.Pengasinan Pulau Sebira, Pulau Harapan, Kep. Seribu Utara,  Kab. Administrasi Kep. Seribu","Pulau Harapan, Kepulauan Seribu Utara, DKI Jakarta",-5.652519999999981,106.57800000000009
1220,2020-04-13,Kebakaran,"Jl.Mangga Besar IX No..08, Tangki, Tamansari,  Kota Administrasi Jakarta Barat","Jalan Mangga Besar IX 8, Tamansari, DKI Jakarta, 11160",-6.147869995864042,106.82439003457517
1223,2020-04-14,Kebakaran,"Jl. Swasembada II No.37C, Kebon Bawang, Tanjung Priok,  Kota Administrasi Jakarta Utara","Jalan Swasembada Barat II 37C, Tanjung Priok, DKI Jakarta, 14320",-6.12606747820049,106.88929529297499
1225,2020-04-14,Kebakaran,"Jl. H. Jian No.43, Cipete Utara, Kebayoran Baru,  Kota Administrasi Jakarta Selatan","Jalan H Jian 43, Kebayoran Baru, DKI Jakarta, 12150",-6.264889997553496,106.80425997209
1227,2020-04-14,Kebakaran,"Halaman Parkir Kantor Kelurahan Rawa Bunga, Rawa bunga, Jatinegara,  Kota Administrasi Jakarta Timur","Rawa Bunga, Jatinegara, DKI Jakarta",-6.218209999999942,106.87035000000009
1237,2020-04-15,Kebakaran,"Komplek PLN, Cipete Selatan, Cilandak,  Kota Administrasi Jakarta Selatan","Cipete Selatan, Cilandak, DKI Jakarta",-6.272099999999966,106.80307000000005
1240,2020-04-15,Kebakaran,"Rusun Marunda, Blok B1, Masjid Al- Hijrah, Marunda, Cilincing,  Kota Administrasi Jakarta Utara","Marunda, Cilincing, DKI Jakarta",-6.118959999999959,106.95709000000005
1242,2020-04-16,Kebakaran,"Jl.Bina Marga No..24 ( Depan Koren Schppl ), Ceger, Cipayung,  Kota Administrasi Jakarta Timur","Jalan Bina Marga 24, Cipayung, DKI Jakarta, 13820",-6.3194200193134265,106.89008001558955
1248,2020-04-16,Kebakaran,"Komplek PIK ( Depan Kelurahan Pengilingan, Penggilingan, Cakung,  Kota Administrasi Jakarta Timur","Penggilingan, Cakung, DKI Jakarta",-6.200469999999939,106.93513000000007
1255,2020-04-17,Kebakaran,"Jl.Bojong Raya No..11, Rawa Buaya, Cengkareng,  Kota Administrasi Jakarta Barat","Jalan Bojong Raya 11, Cengkareng, DKI Jakarta, 11740",-6.170799991195466,106.7286200014542
1256,2020-04-17,Kebakaran,"Jl.Erha Gg.Sadam, Depok, Depok, Kota Depok","Depok, Cirebon Kabupaten, Jawa Barat",-6.731449999999938,108.43972000000008
1259,2020-04-17,Kebakaran,"Jl. Pegangsaan Dua Raya, Pegangsaan Dua, Kelapa Gading,  Kota Administrasi Jakarta Utara","Jalan Pegangsaan Dua, Kelapa Gading, DKI Jakarta, 14250",-6.161121239295372,106.91999175028329
1261,2020-04-17,Kebakaran,"Rukan Plaza 5 Blok. O3 Jl. Margaguna, Gandaria Utara, Kebayoran Baru,  Kota Administrasi Jakarta Selatan","Jalan Marga Guna, Kebayoran Baru, DKI Jakarta, 12140",-6.263097347133891,106.78678349826015
1264,2020-04-17,Kebakaran,"Jl. Angin Sejuk IV Kebon Baru Gg. Pipit, Semper Barat, Cilincing,  Kota Administrasi Jakarta Utara","Jalan Angin Sejuk IV, Cilincing, DKI Jakarta, 14130",-6.114219944511639,106.9228701046309
1276,2020-04-18,Kebakaran,"Gedung gria Lestari Blok G1 No. 39, Sukapura, Cilincing,  Kota Administrasi Jakarta Utara","Suka Pura, Cilincing, DKI Jakarta",-6.148339999999962,106.92778000000004
1281,2020-04-18,Kebakaran,"Jl. Lada Dalam, Pinangsia, Tamansari,  Kota Administrasi Jakarta Barat","Jalan Lada Dalam, Tamansari, DKI Jakarta, 11110",-6.135482234076618,106.81521542514413
1294,2020-04-19,Kebakaran,"Jl.Sulaiman, Kelapa Dua, Kebun Jeruk,  Kota Administrasi Jakarta Barat","Jalan Sulaiman, Kebon Jeruk, DKI Jakarta, 11540",-6.206244151177327,106.77887667923444
1299,2020-04-19,Kebakaran,"Kavling BRI Blok C No..1, Meruya Selatan, Kembangan,  Kota Administrasi Jakarta Barat","Kavling BRI, Kembangan, DKI Jakarta, 11650",-6.207499117632969,106.73404268325599
1305,2020-04-20,Kebakaran,"Jl. Senopati Dalam II, Senayan, Kebayoran Baru,  Kota Administrasi Jakarta Selatan","Jalan Senopati Dalam II, Kebayoran Baru, DKI Jakarta, 12190",-6.226600142187573,106.80456435556886
1306,2020-04-20,Kebakaran,"Jl. Pangeran Antasari , Bangka, Mampang Prapatan,  Kota Administrasi Jakarta Selatan","Jalan Pangeran Antasari, Mampang Prapatan, DKI Jakarta, 12730",-6.261929329446686,106.8126704313298
1307,2020-04-20,Kebakaran,"Jl. Muhtar Raya Gg. Jaelani, Petukangan Utara, Pesanggrahan,  Kota Administrasi Jakarta Selatan","Petukangan Utara, Pesanggrahan, DKI Jakarta",-6.229089999999928,106.75732000000005
1308,2020-04-20,Kebakaran,"Jl. Raya Pemuda, Jati, Pulogadung,  Kota Administrasi Jakarta Timur","Jati, Pulogadung, DKI Jakarta",-6.201689999999928,106.89707000000004
1309,2020-04-20,Kebakaran,"Jl. Kamal Muara Gg. Lulut No..44, Kamal Muara, Penjaringan,  Kota Administrasi Jakarta Utara","Jalan Kamal Muara 44, Penjaringan, DKI Jakarta, 14470",-6.098699001108822,106.71413660338223
1310,2020-04-20,Kebakaran,"Jl. Kali Baru Timur Pangkalan Pasir, Kalibaru, Cilincing,  Kota Administrasi Jakarta Utara","Jalan Kali Baru Timur, Cilincing, DKI Jakarta, 14110",-6.100334779906238,106.92656091668846
1311,2020-04-21,Kebakaran,"Jl. Kembang II, Kwitang, Senen,  Kota Administrasi Jakarta Pusat","Jalan Kembang 2, Senen, DKI Jakarta, 10420",-6.183037192010192,106.8374796935843
1332,2020-04-21,Kebakaran,"Komp DKI Blok CC No. 8, Joglo, Kembangan,  Kota Administrasi Jakarta Barat","Joglo, Kembangan, DKI Jakarta",-6.215999999999951,106.73756000000009
1344,2020-04-21,Kebakaran,"Jl. Sungai Bambu 6B (Kolong Tol Wiyoto Wiyono), Sungai Bambu, Tanjung Priok,  Kota Administrasi Jakarta Utara","Jalan Sungai Bambu 6B, Tanjung Priok, DKI Jakarta, 14330",-6.129045608607459,106.88733074661117
1345,2020-04-22,Kebakaran,"Jl.Tongkol, Ancol, Pademangan,  Kota Administrasi Jakarta Utara","Jalan Tongkol, Pademangan, DKI Jakarta, 14430",-6.128778705884011,106.81119772031694
1349,2020-04-22,Kebakaran,"Jl.Pahlawan Revolusi No..9, Klender, Duren Sawit,  Kota Administrasi Jakarta Timur","Jalan Pahlawan Revolusi 9, Duren Sawit, DKI Jakarta, 13470",-6.224339984461821,106.89911998198329
1352,2020-04-22,Kebakaran,"Jl.Kerajinan Kebun Sayur 1 No..5, Keagungan, Tamansari,  Kota Administrasi Jakarta Barat","Jalan Kerajinan, Tamansari, DKI Jakarta, 11130",-6.153109719176617,106.81581256070504
1359,2020-04-22,Kebakaran,"Jl.Slamet Riyadi 1 Gg.Buntu, Kebon Manggis, Matraman,  Kota Administrasi Jakarta Timur","Jalan Slamet Riyadi 1, Matraman, DKI Jakarta, 13150",-6.210959994332384,106.85867998137076
1362,2020-04-22,Kebakaran,"Gg.Langgar, Gandaria Utara, Kebayoran Baru,  Kota Administrasi Jakarta Selatan","Gandaria Utara, Kebayoran Baru, DKI Jakarta",-6.257709999999975,106.78963000000005
1364,2020-04-23,Kebakaran,"Jl.Agung Barat 33 ( Masjid Nurul Wato ), Sunter Agung, Tanjung Priok,  Kota Administrasi Jakarta Utara","Jalan Agung Barat V 33, Tanjung Priok, DKI Jakarta, 14330",-6.14294001187335,106.85933997242682
1365,2020-04-23,Kebakaran,"Jl.Masjid  No..15, Lenteng Agung, Jagakarsa,  Kota Administrasi Jakarta Selatan","Jalan Masjid, Jagakarsa, DKI Jakarta, 12610",-6.34093777934045,106.83652552188218
1366,2020-04-23,Kebakaran,"Jl.Raya Bogor KM 25 ,KFC Ciracas, Susukan, Ciracas,  Kota Administrasi Jakarta Timur","Jalan Raya Bogor 25, Ciracas, DKI Jakarta, 13750",-6.322319990174066,106.8650900418242
1375,2020-04-23,Kebakaran,"Jl. Ciputat Raya No.7, Kebayoran Lama Selatan, Kebayoran Lama,  Kota Administrasi Jakarta Selatan","Jalan Ciputat Raya 7, Kebayoran Lama, DKI Jakarta, 12240",-6.2538200180296855,106.77778003121625
1376,2020-04-23,Kebakaran,"Jl. Wisma Atlet Kemyoran P2KK, Pademangan Timur, Pademangan,  Kota Administrasi Jakarta Utara","Pademangan Timur, Pademangan, DKI Jakarta",-6.142009999999971,106.84715000000006
1377,2020-04-23,Kebakaran,"Kampung Jembatan Gg. Bayem, Penggilingan, Cakung,  Kota Administrasi Jakarta Timur","Penggilingan, Cakung, DKI Jakarta",-6.200469999999939,106.93513000000007
1378,2020-04-23,Kebakaran,"Jl. Alfalah II No.16, Duri Kosambi, Cengkareng,  Kota Administrasi Jakarta Barat","Jalan Al-Falah II, Cengkareng, DKI Jakarta, 11750",-6.180139945903861,106.71634601682136
1380,2020-04-23,Kebakaran,"Jl. Guru Mugni Gg. Aren, Karet Semanggi, Setiabudi,  Kota Administrasi Jakarta Selatan","Karet Semanggi, Setiabudi, DKI Jakarta",-6.221509999999967,106.81783000000007
1381,2020-04-24,Kebakaran,"Jl. Pengadegan Selatan, Pengadegan, Pancoran,  Kota Administrasi Jakarta Selatan","Jalan Pengadegan Selatan, Pancoran, DKI Jakarta, 12770",-6.2514507593783275,106.85407832843757
1382,2020-04-24,Kebakaran,"Jl. Bugis, No. 63, Kebon Bawang, Tanjung Priok,  Kota Administrasi Jakarta Utara","Jalan Bugis 63, Tanjung Priok, DKI Jakarta, 14320",-6.115530015023211,106.89058997057873
1389,2020-04-24,Kebakaran,"Jl. Menteng Raya, No. 76, Menteng, Menteng,  Kota Administrasi Jakarta Pusat","Jalan Menteng Raya 76, Menteng, DKI Jakarta, 10340",-6.186530015518201,106.83604004179875
1396,2020-04-24,Kebakaran,"Jl. Beo, Pesanggrahan, Pesanggrahan,  Kota Administrasi Jakarta Selatan","Jalan Beo, Pesanggrahan, DKI Jakarta, 12320",-6.2563500155018295,106.75853781325259
1398,2020-04-24,Kebakaran,"Jl. Gandaria, Pekayon, Pasar Rebo,  Kota Administrasi Jakarta Timur","Jalan Gandaria, Pasar Rebo, DKI Jakarta, 13790",-6.344467077450735,106.86460433978347
1413,2020-04-26,Kebakaran,"Jl. Raya Poncol, Ciracas, Ciracas,  Kota Administrasi Jakarta Timur","Jalan Raya Poncol, Ciracas, DKI Jakarta, 13740",-6.326609686427463,106.86859845500815
1416,2020-04-26,Kebakaran,"Jl. H Leman II, No.25, Pesanggrahan, Pesanggrahan,  Kota Administrasi Jakarta Selatan","Jalan H Leman, Pesanggrahan, DKI Jakarta, 12330",-6.267113165867983,106.75847699753452
1417,2020-04-26,Kebakaran,"Jl. Raya Ciracas, No.2, titik kenal Pusdiklatkar, Ciracas, Ciracas,  Kota Administrasi Jakarta Timur","Jalan Raya Ciracas 2, Ciracas, DKI Jakarta, 13740",-6.3293299853472575,106.87702000461383
1425,2020-04-27,Kebakaran,"Jl. Tebet Barat 6 No. 21, Tebet Barat, Tebet,  Kota Administrasi Jakarta Selatan","Jalan Tebet Barat 6 B 21, Tebet, DKI Jakarta, 12810",-6.235399989520857,106.85151999204027
1429,2020-04-27,Kebakaran,"Jl. Sulaiman Blok C, Sukabumi Utara, Kebun Jeruk,  Kota Administrasi Jakarta Barat","Jalan Sulaiman, Kebon Jeruk, DKI Jakarta, 11540",-6.206244151177327,106.77887667923444
1433,2020-04-27,Kebakaran,"Jl. Surabaya Ujung, Menteng, Menteng,  Kota Administrasi Jakarta Pusat","Jalan Surabaya, Menteng, DKI Jakarta, 10310",-6.2006266100865,106.840692981193
1434,2020-04-28,Kebakaran,"Jl. Emas, Sumur Batu, Kemayoran,  Kota Administrasi Jakarta Pusat","Jalan Emas, Kemayoran, DKI Jakarta, 10640",-6.160539975930256,106.86593510530233
1437,2020-04-27,Kebakaran,"Jl. Pulomas Barat I, No. 29, Kayu Putih, Pulogadung,  Kota Administrasi Jakarta Timur","Jalan Pulomas Barat I 29, Pulogadung, DKI Jakarta, 13210",-6.172749999059718,106.88213003188469
1440,2020-04-28,Kebakaran,"Jl.Bungur, Rambutan, Ciracas,  Kota Administrasi Jakarta Timur","Jalan Bungur, Ciracas, DKI Jakarta, 13750",-6.310592462176791,106.88449090169102
1444,2020-04-28,Kebakaran,"Jl.Komp Harmoni Mas, Pejagalan, Penjaringan,  Kota Administrasi Jakarta Utara","Pejagalan, Penjaringan, DKI Jakarta",-6.137929999999926,106.78473000000008
1447,2020-04-28,Kebakaran,"Jl.Rawa Jaya 2 ( Bojan Tirta ), Pisangan Timur, Pulogadung,  Kota Administrasi Jakarta Timur","Jalan Rawa Jaya 2, Pulogadung, DKI Jakarta, 13230",-6.204657367961559,106.87632823777945
1451,2020-04-28,Kebakaran,"Taman Alfa Indah Blok S No..4, Joglo, Kembangan,  Kota Administrasi Jakarta Barat","Jalan S 4, Kembangan, DKI Jakarta, 11640",-6.223230010933818,106.73242002107781
1468,2020-04-29,Kebakaran,"Jl. Lebak Bulus III, lebak bulus, Cilandak,  Kota Administrasi Jakarta Selatan","Jalan Lebak Bulus III, Cilandak, DKI Jakarta, 12440",-6.302314964729511,106.78603008705471
1474,2020-04-30,Kebakaran,"Jl. Raya Bogor, KM 27 Komp Zeni, Pekayon, Pasar Rebo,  Kota Administrasi Jakarta Timur","Jalan Raya Bogor KM/27, Pasar Rebo, DKI Jakarta, 13790",-6.339250009664923,106.86875997431054
1481,2020-04-30,Kebakaran,"Jl. Tanggul Kali Adem Blok Eceng, Pluit, Penjaringan,  Kota Administrasi Jakarta Utara","Pluit, Penjaringan, DKI Jakarta",-6.118699999999933,106.79411000000005
1484,2020-04-30,Kebakaran,"Jl. Kebon 200, Kamal, Kalideres,  Kota Administrasi Jakarta Barat","Jalan Kebon 200, Kalideres, DKI Jakarta, 11810",-6.104181110818349,106.70586079774596
1488,2020-04-29,Kebakaran,"Cempaka Putih Timur 24 A, Cempaka Putih Timur, Cempaka Putih,  Kota Administrasi Jakarta Pusat","Jalan Cempaka Putih Timur 24A, Cempaka Putih, DKI Jakarta, 10510",-6.174830010242218,106.87345995887807
2154,2020-12-01,Kebakaran,"Jl. H. Jamhari, Gg. Siaga III, Angke, Tambora,  Kota Administrasi Jakarta Barat","Angke, Tambora, DKI Jakarta",-6.1452299999999696,106.79356000000007
2155,2020-12-01,Kebakaran,"jl. Angke Indah, Angke, Tambora,  Kota Administrasi Jakarta Barat","Jalan Angke Indah, Tambora, DKI Jakarta, 11290",-6.145084961850699,106.8005901234227
2156,2020-12-01,Kebakaran,"Jl. M.T. Haryono, Tebet barat, Tebet,  Kota Administrasi Jakarta Selatan","Jalan M, Tebet, DKI Jakarta, 12830",-6.239072224901295,106.86103144884113
2157,2020-12-01,Kebakaran,"Jl. Kapten Tendean Gg. jati, Pela Mampang, Mampang Prapatan,  Kota Administrasi Jakarta Selatan","Jalan Kapten Tendean, Mampang Prapatan, DKI Jakarta, 12720",-6.240261491198426,106.81961067382042
2161,2020-12-02,Kebakaran,"Jl. Manggar, Tugu Utara, Koja,  Kota Administrasi Jakarta Utara","Jalan Manggar, Koja, DKI Jakarta, 14230",-6.119709235910818,106.91014460072404
2162,2020-12-02,Kebakaran,"Jl. Ruko Mahkota, Pademangan barat, Pademangan,  Kota Administrasi Jakarta Utara","Pademangan Barat, Pademangan, DKI Jakarta",-6.134389999999939,106.83661000000006
2163,2020-12-02,Kebakaran,"Jl. Tanjung Mas Prima, Blok D2, No. 5, Tanjung Barat, Jagakarsa,  Kota Administrasi Jakarta Selatan","Jalan Tanjung Mas Prima D2, Jagakarsa, DKI Jakarta, 12650",-6.311959999758727,106.84354000112205
2177,2020-12-02,Kebakaran,"Jl. Widara, Wijaya Kusuma, Grogol Petamburan,  Kota Administrasi Jakarta Barat","Jalan Widara, Grogol Petamburan, DKI Jakarta, 11460",-6.153019054175339,106.77679371688522
2182,2020-12-03,Kebakaran,"Taman Palm, Blok C NO.59, Cengkareng Barat, Cengkareng,  Kota Administrasi Jakarta Barat","Blok C 59, Cengkareng, DKI Jakarta, 11730",-6.135309017965948,106.71916362193178
2186,2020-12-03,Kebakaran," Jl.bambu ulung 1 Rt 10/05, Bambu Apus, Cipayung,  Kota Administrasi Jakarta Timur","Jalan Bambu Wulung 1 10, Cipayung, DKI Jakarta, 13890",-6.321009982526775,106.90373002872974
2202,2020-12-04,Kebakaran,"Jl. Pertanian Selatan , Klender, Duren Sawit,  Kota Administrasi Jakarta Timur","Jalan Pertanian Selatan, Duren Sawit, DKI Jakarta, 13470",-6.217343003820604,106.89845929848954
2207,2020-12-04,Kebakaran,"Jl. Langgar 3, Pejaten Timur, Pasar Minggu,  Kota Administrasi Jakarta Selatan","Jalan Langgar, Jagakarsa, DKI Jakarta, 12650",-6.308428146290002,106.84712825579429
2211,2020-12-05,Kebakaran,"Jl. Tanah Merah, Penjaringan, Penjaringan,  Kota Administrasi Jakarta Utara","Penjaringan, DKI Jakarta",-6.131649999999979,106.79270000000008
2214,2020-12-05,Kebakaran,"Jl. Pondok Kelapa XII, Blok F7, No. 16, Pondok Kelapa, Duren Sawit,  Kota Administrasi Jakarta Timur","Jalan Pondok Kelapa XII, Duren Sawit, DKI Jakarta, 13450",-6.246641598006674,106.93676484346123
2219,2020-12-05,Kebakaran,"Jl. Kp. Janis, No. 36, Pekojan, Tambora,  Kota Administrasi Jakarta Barat","Pekojan, Tambora, DKI Jakarta",-6.138079999999945,106.80729000000008
2221,2020-12-06,Kebakaran,"Jl. Kepu, Gg. V, No. 277, Bungur, Senen,  Kota Administrasi Jakarta Pusat","Bungur, Senen, DKI Jakarta",-6.171739999999943,106.84775000000008
2228,2020-12-06,Kebakaran,"Jl.Tipar Cakung, Sukapura, Cilincing,  Kota Administrasi Jakarta Utara","Jalan Tipar Cakung, Cilincing, DKI Jakarta, 14140",-6.145746660353244,106.92308585822634
2231,2020-12-06,Kebakaran,"Jl.Rukun Ujung, Pejaten Timur, Pasar Minggu,  Kota Administrasi Jakarta Selatan","Jalan Rukun, Pasar Minggu, DKI Jakarta, 12510",-6.270179474065823,106.85043835253869
2232,2020-12-06,Kebakaran,"Jl.Prof Dr.Soepomo, Tebet Barat, Tebet,  Kota Administrasi Jakarta Selatan","Jalan Prof DR Soepomo, Tebet, DKI Jakarta, 12810",-6.2425961326639925,106.8442699093935
2237,2020-12-06,Kebakaran,"Jl.Ksatrian IX No..2, Kebon Manggis, Matraman,  Kota Administrasi Jakarta Timur","Jalan Kesatrian IX 2, Matraman, DKI Jakarta, 13150",-6.206920000820844,106.85286000690093
2238,2020-12-06,Kebakaran,"Jl.Teratai Putih, Malaka Jaya, Duren Sawit,  Kota Administrasi Jakarta Timur","Jalan Teratai Putih, Duren Sawit, DKI Jakarta, 13460",-6.2198629543486215,106.93146212314112
2239,2020-12-07,Kebakaran,"Jl.Kemanggisan Pulo 2, Kemanggisan, Palmerah,  Kota Administrasi Jakarta Barat","Jalan Kemanggisan Pulo 2, Palmerah, DKI Jakarta, 11480",-6.2019600096167835,106.78954998347422
2245,2020-12-07,Kebakaran,"Jl. Dermaga Raya Komp. PTB K3 No. 15, Duren sawit, Duren Sawit,  Kota Administrasi Jakarta Timur","Jalan Dermaga Raya, Duren Sawit, DKI Jakarta, 13470",-6.221109097719535,106.90843283620048
2248,2020-12-07,Kebakaran,"Jl. Condet Pejaten, Pejaten barat, Pasar Minggu,  Kota Administrasi Jakarta Selatan","Jalan Condet Pejaten, Pasar Minggu, DKI Jakarta, 12510",-6.277132389875446,106.83126000520944
2249,2020-12-07,Kebakaran,"Jl. Matraman I, Kebon Manggis, Matraman,  Kota Administrasi Jakarta Timur","Jalan Matraman I, Matraman, DKI Jakarta, 13150",-6.201856530283583,106.85314430808435
2254,2020-12-08,Kebakaran,"Jl. Penjernihan 1 (Pam Baru), Bendungan Hilir, Tanah Abang,  Kota Administrasi Jakarta Pusat","Jalan Penjernihan 1, Tanah Abang, DKI Jakarta, 10220",-6.201335097757623,106.81151891813388
2255,2020-12-08,Kebakaran,"Jl. Metro Kencana Raya, No. 18, Papanggo, Tanjung Priok,  Kota Administrasi Jakarta Utara","Jalan Metro Kencana 18, Tanjung Priok, DKI Jakarta, 14340",-6.135379851920325,106.87219278227482
2258,2020-12-08,Kebakaran,"RJA DPR RI, Blok B4, Rawajati, Pancoran,  Kota Administrasi Jakarta Selatan","Rawajati, Pancoran, DKI Jakarta",-6.2572099999999296,106.85445000000004
2267,2020-12-08,Kebakaran,"Jl. M Khafi 1, Gg. Madrasah, Jagakarsa, Jagakarsa,  Kota Administrasi Jakarta Selatan","Jagakarsa, DKI Jakarta",-6.326669999999979,106.82144000000005
2271,2020-12-08,Kebakaran,"Jl. Batu Sari, No. 1B, 1C dan 1D, Palmerah, Palmerah,  Kota Administrasi Jakarta Barat","Jalan Batusari, Grogol Petamburan, DKI Jakarta, 11470",-6.184425273507861,106.7832119619325
2277,2020-12-09,Kebakaran,"Jl.Pancoran Timur VI No..PAV 28, Pengadegan, Pancoran,  Kota Administrasi Jakarta Selatan","Jalan Pancoran Timur 6, Pancoran, DKI Jakarta, 12770",-6.249019953538202,106.84753008040019
2280,2020-12-09,Kebakaran,"Jl. Jampea , Koja, Koja,  Kota Administrasi Jakarta Utara","Jalan Jampea, Koja, DKI Jakarta, 14210",-6.107701166992363,106.89999583610248
2282,2020-12-09,Kebakaran,"Jln. Tunjung, Jati Pulo, Palmerah,  Kota Administrasi Jakarta Barat","Jati Pulo, Palmerah, DKI Jakarta",-6.1790399999999295,106.80234000000007
2291,2020-12-10,Kebakaran,"Jl. Danau Semayang B1 No 115, Bendungan Hilir, Tanah Abang,  Kota Administrasi Jakarta Pusat","Jalan Danau Semayang 115, Tanah Abang, DKI Jakarta, 10210",-6.209189987838826,106.80681997295784
2292,2020-12-10,Kebakaran,"Jl. Onkgki Raya, Pluit, Penjaringan,  Kota Administrasi Jakarta Utara","Jalan Ongki Raya, Penjaringan, DKI Jakarta, 14450",-6.121761867190594,106.79731634086765
2293,2020-12-10,Kebakaran,"Jl. Pancoran Timur Raya, Pengadegan, Pancoran,  Kota Administrasi Jakarta Selatan","Jalan Pancoran Timur Raya, Pancoran, DKI Jakarta, 12770",-6.2494682496967195,106.84909170757838
2310,2020-12-12,Kebakaran,"Jl. D.I. Panjaitan (Titik Kenal Kantor Pegadaian), Cipinang Cimpedak, Jatinegara,  Kota Administrasi Jakarta Timur","Jalan D I Panjaitan, Jatinegara, DKI Jakarta, 13340",-6.2335245210177215,106.87643933663719
2314,2020-12-12,Kebakaran,"Jl. Jelambar Barat III, No. 41, Jelambar Baru, Grogol Petamburan,  Kota Administrasi Jakarta Barat","Jalan Jelambar Barat III 41, Grogol Petamburan, DKI Jakarta, 11460",-6.144129990667167,106.78300002905678
2317,2020-12-12,Kebakaran,"Jl.Lontar Bawah Titik kenal samping masjid al ikhlas deket kantor kecamatan kebon melati,, Kebon Melati, Tanah Abang,  Kota Administrasi Jakarta Pusat","Kebon Melati, Tanah Abang, DKI Jakarta",-6.1966299999999706,106.81436000000008
2324,2020-12-12,Kebakaran,"Jl. Kamal Raya RT.03 RW.06 / titik kenal SMU 33, Cengkareng Barat, Cengkareng,  Kota Administrasi Jakarta Barat","Jalan Kamal Raya 3, Cengkareng, DKI Jakarta, 11730",-6.130559982792732,106.72724997938019
2329,2020-12-12,Kebakaran," Jl. Menteng Atas Selatan III No.19, Menteng Atas, Setiabudi,  Kota Administrasi Jakarta Selatan","Jalan Menteng Atas Selatan 3 19, Setiabudi, DKI Jakarta, 12960",-6.217539997872677,106.83960997818019
2330,2020-12-12,Kebakaran," Jl. Ciragil I No.5 , Rawa Barat, Kebayoran Baru,  Kota Administrasi Jakarta Selatan","Rawa Barat, Kebayoran Baru, DKI Jakarta",-6.236089999999933,106.81388000000004
2333,2020-12-12,Kebakaran,"Jl. Petojo Barat VII, Duri Pulo, Gambir,  Kota Administrasi Jakarta Pusat","Jalan Petojo Barat VII, Gambir, DKI Jakarta, 10140",-6.16466518496838,106.80983008202622
2345,2020-12-13,Kebakaran,"Jl. Paus, Rawamangun, Pulogadung,  Kota Administrasi Jakarta Timur","Jalan Paus, Pulogadung, DKI Jakarta, 13220",-6.195883888255899,106.89106245235577
2346,2020-12-13,Kebakaran,"Jl. Bangka VIII, Pela Mampang, Mampang Prapatan,  Kota Administrasi Jakarta Selatan","Jalan Bangka VIII, Mampang Prapatan, DKI Jakarta, 12720",-6.249283011895068,106.82013676050904
2347,2020-12-14,Kebakaran,"Jl. Pedongkelan Belakang, Kapuk, Cengkareng,  Kota Administrasi Jakarta Barat","Jalan Pedongkelan Belakang, Cengkareng, DKI Jakarta, 11720",-6.139982615298807,106.74414062415902
2352,2020-12-14,Kebakaran,"Jl. Benda II, Petogogan, Kebayoran Baru,  Kota Administrasi Jakarta Selatan","Jalan Benda 2, Kebayoran Baru, DKI Jakarta, 12160",-6.250964953215309,106.7960351038706
2358,2020-12-14,Kebakaran,"Jl. Duku, No. 25, Jagakarsa, Jagakarsa,  Kota Administrasi Jakarta Selatan","Jalan Duku 25, Jagakarsa, DKI Jakarta, 12640",-6.3390178253731895,106.83036266304596
2370,2020-12-15,Kebakaran,"Jl. Kutilang (Komplek Dirgantara), Halim Perdana Kusuma, Makasar,  Kota Administrasi Jakarta Timur","Jalan Kutilang, Makasar, DKI Jakarta, 13610",-6.280389959588831,106.90815508687317
2371,2020-12-15,Kebakaran,"Jl. Tanjung Duren Raya, No. 82, Tanjung Duren Utara, Grogol Petamburan,  Kota Administrasi Jakarta Barat","Jalan Tanjung Duren Raya 82, Grogol Petamburan, DKI Jakarta, 11470",-6.175980007357893,106.78336003179817
2372,2020-12-15,Kebakaran,"Jl. Sarang Bangau, Marunda, Cilincing,  Kota Administrasi Jakarta Utara","Jalan Sarang Bango, Cilincing, DKI Jakarta, 14150",-6.129190320295799,106.95606971606325
2374,2020-12-15,Kebakaran,"Gg Asem, Kelapa Dua Wetan, Ciracas,  Kota Administrasi Jakarta Timur","Kelapa Dua Wetan, Ciracas, DKI Jakarta",-6.339369999999974,106.88303000000008
2407,2020-12-17,Kebakaran,"Jl. Rempang 2, No. 1, Kelapa Gading Barat, Kelapa Gading,  Kota Administrasi Jakarta Utara","Jalan Pulau Rempang 2 1, Kelapa Gading, DKI Jakarta, 14240",-6.160279990248512,106.88795998081935
2408,2020-12-17,Kebakaran,"Jl. Cucur Timur IV, Kel. Pondok Karya, Kec. Pondok Aren, Tangerang, Tangerang, Kota Tangerang","Jalan Cucur Timur IV, Pondok Aren, Banten, 15425",-6.2621039150008935,106.74360738406216
2412,2020-12-18,Kebakaran,"Jl. Gading 1, Pisangan Timur, Pulogadung,  Kota Administrasi Jakarta Timur","Jalan Gading 1, Pulogadung, DKI Jakarta, 13230",-6.206189958009027,106.87910005770581
2416,2020-12-17,Kebakaran,"Jl. Kran, No. 7, Gunung Sahari Selatan, Kemayoran,  Kota Administrasi Jakarta Pusat","Jalan Kran V 7, Kemayoran, DKI Jakarta, 10610",-6.1594000161436355,106.84300003891951
2417,2020-12-17,Kebakaran,"Jl. Luar Batang, Gg. V, Penjaringan, Penjaringan,  Kota Administrasi Jakarta Utara","Jalan Luar Batang V, Penjaringan, DKI Jakarta, 14440",-6.123881698031819,106.80509311001954
2418,2020-12-18,Kebakaran,"BKT, Ujung Menteng, Cakung,  Kota Administrasi Jakarta Timur","Ujung Menteng, Cakung, DKI Jakarta",-6.190729999999974,106.95884000000007
2419,2020-12-18,Kebakaran,"Rawa bambu 1, Pasar Minggu, Pasar Minggu,  Kota Administrasi Jakarta Selatan","Pasar Minggu, DKI Jakarta",-6.285249999999962,106.84248000000008
2420,2020-12-18,Kebakaran,"Jl. Angkasa No..54, Gunung Sahari Utara, Sawah Besar,  Kota Administrasi Jakarta Pusat","Jalan Angkasa, Kemayoran, DKI Jakarta, 10610",-6.158989985252879,106.84836503009795
2421,2020-12-18,Kebakaran,"Gg. Banteng No..1, Rawa Badak Utara, Koja,  Kota Administrasi Jakarta Utara","Rawabadak Utara, Koja, DKI Jakarta",-6.122999999999934,106.89922000000007
2422,2020-12-18,Kebakaran,"Jl. Jatinegara Barat Raya No..160, Kampung Mester/Melayu, Jatinegara,  Kota Administrasi Jakarta Timur","Jalan Jatinegara Barat 160, Jatinegara, DKI Jakarta, 13310",-6.221809990807344,106.86560997127816
2423,2020-12-18,Kebakaran,"Jl. Pemuda Raya, Rawamangun, Pulogadung,  Kota Administrasi Jakarta Timur","Jalan Pemuda, Pulogadung, DKI Jakarta, 13220",-6.191386324302817,106.88744655243477
2429,2020-12-19,Kebakaran,"Jl. Tebet Timur Dalam Raya No.73,, Tebet Timur, Tebet,  Kota Administrasi Jakarta Selatan","Jalan Tebet Timur Dalam Raya 73, Tebet, DKI Jakarta, 12820",-6.236770011594871,106.85672004095125
2439,2020-12-19,Kebakaran,"jl. Arista Raya, Pondok Kelapa, Duren Sawit,  Kota Administrasi Jakarta Timur","Pondok Kelapa, Duren Sawit, DKI Jakarta",-6.238869999999963,106.93430000000006
2440,2020-12-19,Kebakaran,"jl. Rawa Kedaung Kober, Cengkareng Timur, Cengkareng,  Kota Administrasi Jakarta Barat","Jalan Rawa Kedaung, Cengkareng, DKI Jakarta, 11730",-6.138859993945301,106.7367307092165
2441,2020-12-19,Kebakaran,"Tebet Mas Indah Blok 3E, Tebet Barat, Tebet,  Kota Administrasi Jakarta Selatan","Jalan Tebet Mas Indah 4 3E, Tebet, DKI Jakarta, 12810",-6.231486658401461,106.84704332364235
2442,2020-12-19,Kebakaran,"Jl. PLN Laboratorium Duren Tiga, Duren Tiga, Pancoran,  Kota Administrasi Jakarta Selatan","Duren Tiga, Pancoran, DKI Jakarta",-6.254309999999975,106.83306000000005
2445,2020-12-20,Kebakaran,"jl. Komarudin Sentra Timur Gg. Sakti, Pulo gebang, Cakung,  Kota Administrasi Jakarta Timur","Jalan Komarudin, Cakung, DKI Jakarta, 13950",-6.195798447209401,106.94305179773613
2446,2020-12-20,Kebakaran,"Jl. Kusuma, Blok. A2, No. 1, Jelambar Baru, Grogol Petamburan,  Kota Administrasi Jakarta Barat","Jalan Kusuma A2, Grogol Petamburan, DKI Jakarta, 11460",-6.14506997919878,106.78070003482543
2450,2020-12-20,Kebakaran,"Jl. Petogogan, Gg. Masjid, Gandaria Utara, Kebayoran Baru,  Kota Administrasi Jakarta Selatan","Jalan Petogogan I, Kebayoran Baru, DKI Jakarta, 12140",-6.251181091195753,106.79431505648016
2458,2020-12-20,Kebakaran,"Jl. Bina Warga, Rawajati, Pancoran,  Kota Administrasi Jakarta Selatan","Jalan Bina Warga, Pancoran, DKI Jakarta, 12750",-6.257561583212847,106.85860889935579
2464,2020-12-20,Kebakaran,"Jl. Jagakarsa 1, Gg. Batas, Jagakarsa, Jagakarsa,  Kota Administrasi Jakarta Selatan","Jalan Jagakarsa 1, Jagakarsa, DKI Jakarta, 12620",-6.326530010591512,106.82068003659168
2466,2020-12-21,Kebakaran,"Jl. Arteri Marunda, No. 43, Semper Timur, Cilincing,  Kota Administrasi Jakarta Utara","Jalan Semper Timur 43, Cilincing, DKI Jakarta, 14130",-6.116930150825989,106.93431749479757
2468,2020-12-20,Kebakaran,"Komplek Griya Indah, Kav. Darussalam, No. 17, Kel. Ketapang, Kec. Cipondoh, Kota Tangerang, Tangerang, Tangerang, Kota Tangerang","Jalan Darussalam I 17, Cipondoh, Tangerang, Banten, 15147",-6.179073613338251,106.70511593360344
2472,2020-12-21,Kebakaran,"jln masjid al wustho no 2, Pondok Bambu, Duren Sawit,  Kota Administrasi Jakarta Timur","Jalan Masjid al Wustho 2, Duren Sawit, DKI Jakarta, 13430",-6.244830007778873,106.90764999338779
2481,2020-12-22,Kebakaran,"Jl. Kubis I, Pulo, Kebayoran Baru,  Kota Administrasi Jakarta Selatan","Jalan Kubis I, Kebayoran Baru, DKI Jakarta, 12160",-6.255144945464629,106.79629008136516
2482,2020-12-22,Kebakaran,"Jl. Melati, Rawa Badak Utara, Koja,  Kota Administrasi Jakarta Utara","Jalan Melati, Koja, DKI Jakarta, 14230",-6.115801445891142,106.8946247684585
2483,2020-12-22,Kebakaran,"Hotel Akasia, Jl. Kramat Raya, Kramat, Senen,  Kota Administrasi Jakarta Pusat","Jalan Kramat Raya, Senen, DKI Jakarta, 10450",-6.183368344357985,106.84333304576289
2491,2020-12-22,Kebakaran,"Jl. Manunggal XVII, Lubang Buaya, Cipayung,  Kota Administrasi Jakarta Timur","Jalan Manunggal XVII, Cipayung, DKI Jakarta, 13810",-6.297585060918374,106.89685568423148
2492,2020-12-22,Kebakaran,"Jl. A Latief, baru, Pasar Rebo,  Kota Administrasi Jakarta Timur","Jalan A Latief, Pasar Rebo, DKI Jakarta, 13790",-6.327522123757882,106.84556361055392
2499,2020-12-23,Kebakaran,"Jl. Raya Fatahillah, No. 107, Kel. Kali Jaya, Kec. Cikarang Barat - Kota Bekasi, Bekasi, Bekasi, Kota Bekasi","Jalan Raya Fatahillah 107, Cikarang Barat, Bekasi, Jawa Barat, 17849",-6.271090007513337,107.12792003859204
2501,2020-12-23,Kebakaran,"Jl. Raya Kayu Besar (Rukan Paris), Blok. B, No. 67 (Golf Lake Residence), Cengkareng Timur, Cengkareng,  Kota Administrasi Jakarta Barat","Cengkareng Timur, Cengkareng, DKI Jakarta",-6.137309999999957,106.73577000000006
2504,2020-12-23,Kebakaran,"Jl. Sisi Tol Jorr, Pulo Gebang, Cakung,  Kota Administrasi Jakarta Timur",Badan Pertahanan Nasional Kota Administrasi Jakarta Timur,-6.214899999999943,106.94562000000008
2506,2020-12-23,Kebakaran,"Jl. Segitiga (Komplek Unilever), Petukangan Selatan, Pesanggrahan,  Kota Administrasi Jakarta Selatan",Kompleks Unilever,-6.248149999999953,106.75684000000007
2512,2020-12-24,Kebakaran,"Jl.Penjernihan 1, Bendungan Hilir, Tanah Abang,  Kota Administrasi Jakarta Pusat","Jalan Penjernihan 1, Tanah Abang, DKI Jakarta, 10220",-6.201335097757623,106.81151891813388
2517,2020-12-24,Kebakaran,"Jl. Sulaiman, Sukabumi Utara, Kebun Jeruk,  Kota Administrasi Jakarta Barat","Jalan Sulaiman, Kebon Jeruk, DKI Jakarta, 11540",-6.206244151177327,106.77887667923444
2518,2020-12-24,Kebakaran,"Jl. Kali Pasir gg. Tembok, Kebon Sirih, Menteng,  Kota Administrasi Jakarta Pusat","Jalan Kali Pasir, Menteng, DKI Jakarta, 10340",-6.187109959398917,106.83647506257356
2540,2020-12-26,Kebakaran,"Jl. Warakas III, Gg. VIII, Warakas, Tanjung Priok,  Kota Administrasi Jakarta Utara","Jalan Warakas 3, Tanjung Priok, DKI Jakarta, 14340",-6.119267720503235,106.87726377256068
2547,2020-12-26,Kebakaran,"Jl. Swadaya 1, Pejaten Timur, Pasar Minggu,  Kota Administrasi Jakarta Selatan","Jalan Swadaya 1, Pasar Minggu, DKI Jakarta, 12510",-6.294322667978045,106.84571776289947
2548,2020-12-26,Kebakaran,"Jl. Alpukat II, No.. 53, Tanjung Duren Utara, Grogol Petamburan,  Kota Administrasi Jakarta Barat","Jalan Alpukat 2, Grogol Petamburan, DKI Jakarta, 11470",-6.178696608770274,106.79287121034181
2555,2020-12-27,Kebakaran,"Jl. Kp Muaru Bahari, Tanjung Priok, Tanjung Priok,  Kota Administrasi Jakarta Utara",Kota Administrasi Jakarta Utara,-6.139129999999966,106.86195000000004
2556,2020-12-27,Kebakaran,"Jl. Sulaiman, Pasar kembang Blok C, Sukabumi Utara, Kebun Jeruk,  Kota Administrasi Jakarta Barat","Jalan Sulaiman, Kebon Jeruk, DKI Jakarta, 11540",-6.206244151177327,106.77887667923444
2563,2020-12-27,Kebakaran,"Jln. Raya Cirende , Lebak Bulus, Cilandak,  Kota Administrasi Jakarta Selatan","Jalan Cirendeu Raya, Cilandak, DKI Jakarta, 12440",-6.301945895780765,106.77365040738624
2565,2020-12-28,Kebakaran,"Jln. Kp. Jati Baru, Tangerang, Tangerang, Kota Tangerang","Tangerang, Banten",-6.170129999999972,106.63404000000008
2566,2020-12-28,Kebakaran," Jln nusa indah 3 , Malaka Jaya, Duren Sawit,  Kota Administrasi Jakarta Timur","Jalan Nusa Indah 3, Duren Sawit, DKI Jakarta, 13460",-6.221096996559906,106.93335937783515
2569,2020-12-28,Kebakaran,"Jl. Jaya Mandal I, Menteng Dalam, Tebet,  Kota Administrasi Jakarta Selatan","Jalan Jaya Mandala I, Tebet, DKI Jakarta, 12870",-6.239358007609223,106.8377417409854
2570,2020-12-28,Kebakaran,"Jl. Cempaka Putih Raya No.42, Cempaka Putih Barat , Cempaka Putih,  Kota Administrasi Jakarta Pusat","Jalan Cempaka Putih Raya 42, Cempaka Putih, DKI Jakarta, 10520",-6.176390008151714,106.86306002869412
2571,2020-12-28,Kebakaran,"Jl. Puri Jimbaran Raya Blok E6 No.58, Ancol, Pademangan,  Kota Administrasi Jakarta Utara","Blok E E/6, Penjaringan, DKI Jakarta, 14450",-6.120959979538327,106.79640998449008
2572,2020-12-28,Kebakaran,"Jl. Betet Raya, Tanah Sereal, Tambora,  Kota Administrasi Jakarta Barat","Tanah Sereal, Tambora, DKI Jakarta",-6.149689999999964,106.81138000000004
2573,2020-12-28,Kebakaran,"Jl. Prepetan Gg. Jambu, Kamal, Kalideres,  Kota Administrasi Jakarta Barat","Kamal, Kalideres, DKI Jakarta",-6.103489999999965,106.69954000000007
2574,2020-12-28,Kebakaran,"Jl. Kampung Salo, Kembangan Utara, Kembangan,  Kota Administrasi Jakarta Barat","Jalan Kampung Salo, Kembangan, DKI Jakarta, 11610",-6.163732667805072,106.75456569049024
2575,2020-12-29,Kebakaran,"Jl. Perdana Raya, Wijaya Kusuma, Grogol Petamburan,  Kota Administrasi Jakarta Barat","Jalan Perdana, Grogol Petamburan, DKI Jakarta, 11460",-6.152497553771527,106.77389750847247
2576,2020-12-29,Kebakaran,"Jl. Awaludin II No.18, Kebon Melati, Tanah Abang,  Kota Administrasi Jakarta Pusat","Jalan Awaludin 2 18, Tanah Abang, DKI Jakarta, 10230",-6.199430015962307,106.81366999950899
2577,2020-12-29,Kebakaran,"Jl. Inspeksi BKT, Ujung Menteng, Cakung,  Kota Administrasi Jakarta Timur","Ujung Menteng, Cakung, DKI Jakarta",-6.190729999999974,106.95884000000007
2578,2020-12-29,Kebakaran,"Jl. H. Baping No.14, Susukan, Ciracas,  Kota Administrasi Jakarta Timur","Jalan H Baping 14, Ciracas, DKI Jakarta, 13750",-6.319230001568442,106.87275001167916
2585,2020-12-29,Kebakaran,"Jl. Kecamatan Jaya Blok B komp UKA, Tugu Utara, Koja,  Kota Administrasi Jakarta Utara","Tugu Utara, Koja, DKI Jakarta",-6.12352999999996,106.91244000000006
2586,2020-12-29,Kebakaran,"Jl. Madrasah 1 Gg WW, Sukabumi Utara, Kebun Jeruk,  Kota Administrasi Jakarta Barat","Jalan Madrasah 1, Kebon Jeruk, DKI Jakarta, 11530",-6.201654166732491,106.77730735668523
2587,2020-12-29,Kebakaran,"Jl. H Ipin, Pondok Labu, Cilandak,  Kota Administrasi Jakarta Selatan","Pondok Labu, Cilandak, DKI Jakarta",-6.30875999999995,106.79864000000003
2588,2020-12-29,Kebakaran,"jl. Bungur, Kebayoran lama Utara, Kebayoran Lama,  Kota Administrasi Jakarta Selatan","Jalan Bungur, Kebayoran Lama, DKI Jakarta, 12240",-6.2476764012533375,106.78190812207274
2589,2020-12-29,Kebakaran,"Jl. Rawadas , Pondok Kopi, Duren Sawit,  Kota Administrasi Jakarta Timur","Pondok Kopi, Duren Sawit, DKI Jakarta",-6.225609999999961,106.94346000000007
2592,2020-12-29,Kebakaran,"Jl. Krendang Selatan, Krendang, Tambora,  Kota Administrasi Jakarta Barat","Jalan Krendang Selatan, Tambora, DKI Jakarta, 11260",-6.1531254543651315,106.80281637881858
2593,2020-12-29,Kebakaran,"Jl. Kembangan Selatan, Kembangan Selatan, Kembangan,  Kota Administrasi Jakarta Barat","Jalan Kembangan Selatan, Kembangan, DKI Jakarta, 11610",-6.185180295640862,106.72738639633147
2594,2020-12-30,Kebakaran,"Jl. teluk Intan, Pejagalan, Penjaringan,  Kota Administrasi Jakarta Utara","Pejagalan, Penjaringan, DKI Jakarta",-6.137929999999926,106.78473000000008
2600,2020-12-30,Kebakaran,"Jl.Badilah 1, Tangki, Tamansari,  Kota Administrasi Jakarta Barat","Tangki, Tamansari, DKI Jakarta",-6.147389999999973,106.82419000000004
2601,2020-12-30,Kebakaran,"Jl.Lembah Palem No..34, Pondok Kelapa, Duren Sawit,  Kota Administrasi Jakarta Timur","Jalan Lembah Palem, Duren Sawit, DKI Jakarta, 13450",-6.236427562495225,106.93276935433504
2606,2020-12-30,Kebakaran,"Jl. Rawa Babon, Ciracas, Ciracas,  Kota Administrasi Jakarta Timur","Ciracas, DKI Jakarta",-6.328499999999963,106.87888000000004
2611,2020-12-30,Kebakaran,"Jl.Simprug Golf 3 No..128, Grogol Utara, Kebayoran Lama,  Kota Administrasi Jakarta Selatan","Jalan Simprug Golf 3 128, Kebayoran Lama, DKI Jakarta, 12220",-6.224569983884962,106.7930500147832
2612,2020-12-30,Kebakaran,"Jl.Nila Gg.Mushola, Jagakarsa, Jagakarsa,  Kota Administrasi Jakarta Selatan","Jalan Nila, Jagakarsa, DKI Jakarta, 12630",-6.328139964643931,106.80912508015015
2613,2020-12-31,Kebakaran,"Jl.Taman Palem Mutiara Blok B7 No..56 - 57, Cengkareng Timur, Cengkareng,  Kota Administrasi Jakarta Barat","Jalan Taman Palem Mutiara 56, Cengkareng, DKI Jakarta, 11730",-6.14118999621887,106.73134001285365
2615,2020-12-31,Kebakaran,"Jl. Rawajati Timur V No.31, Rawajati, Pancoran,  Kota Administrasi Jakarta Selatan","Jalan Rawajati Timur 31, Pancoran, DKI Jakarta, 12750",-6.259286281403797,106.85357746391095
2616,2020-12-31,Kebakaran,"Pulau Tidung, Pulau Tidung, Kep. Seribu Selatan,  Kab. Administrasi Kep. Seribu","Pulau Tidung, Kepulauan Seribu Selatan, DKI Jakarta",-5.796479999999974,106.49515000000008
2620,2020-12-31,Kebakaran,"Jl. Taman Palm Mutiara Blok C8/01, Cengkareng Timur, Cengkareng,  Kota Administrasi Jakarta Barat","Jalan Taman Palem Mutiara 1, Cengkareng, DKI Jakarta, 11730",-6.1370399902281605,106.73163002670356
2625,2020-12-13,Kebakaran,"Jl. Kakap Pengasinan , Kalibaru, Cilincing,  Kota Administrasi Jakarta Utara","Kali Baru, Cilincing, DKI Jakarta",-6.101389999999981,106.93135000000007
3217,2020-02-01,Kebakaran,"Jl. Jembatan Dempet (SDN 04 Sumur Batu), Sumur Batu, Kemayoran,  Kota Administrasi Jakarta Pusat","Jalan Jembatan 4, Kebayoran Baru, DKI Jakarta, 12160",-6.252684271519397,106.79681746185611
3220,2020-02-01,Kebakaran,"Jl. Masjid Nurul Huda , Cengkareng Timur, Cengkareng,  Kota Administrasi Jakarta Barat","Jalan Masjid Nurul Huda, Cengkareng, DKI Jakarta, 11730",-6.152536050640868,106.73090327650708
3223,2020-02-01,Kebakaran,"Jl. Muria Gg.8, Menteng Atas, Setiabudi,  Kota Administrasi Jakarta Selatan","Jalan Muria 8, Setiabudi, DKI Jakarta, 12980",-6.208467509694614,106.83537753617173
3228,2020-02-01,Kebakaran,"Jl.Raya Bekasi Pulogadung, Jatinegara Kaum, Pulogadung,  Kota Administrasi Jakarta Timur","Jalan Raya Bekasi, Pulogadung, DKI Jakarta, 13250",-6.1954961465771525,106.90351051048944
3229,2020-02-01,Kebakaran,"Jl.Kebon Jeruk 13 No..95, Maphar, Tamansari,  Kota Administrasi Jakarta Barat","Jalan Kebon Jeruk 13, Tamansari, DKI Jakarta, 11160",-6.1546549578917435,106.8200601110328
3240,2020-02-02,Kebakaran,"Jl. Raya Bogor No.10, Kramat Jati, Kramat Jati,  Kota Administrasi Jakarta Timur","Jalan Raya Bogor 10, Kramatjati, DKI Jakarta, 13510",-6.282085514322243,106.87207330008724
3246,2020-02-02,Kebakaran,"Komplek Metland Ujung Menteng Blok J7, Ujung Menteng, Cakung,  Kota Administrasi Jakarta Timur","Ujung Menteng, Cakung, DKI Jakarta",-6.190729999999974,106.95884000000007
3247,2020-02-02,Kebakaran,"Jl. Raya Condet, Gedong, Pasar Rebo,  Kota Administrasi Jakarta Timur","Jalan Raya Condet, Pasar Rebo, DKI Jakarta, 13760",-6.301676408740199,106.85734393175012
3271,2020-02-03,Kebakaran,"Jl. Barito , Semper Barat, Cilincing,  Kota Administrasi Jakarta Utara","Semper Barat, Cilincing, DKI Jakarta",-6.125129999999956,106.92375000000004
3272,2020-02-03,Kebakaran,"Jln.Fahrudin Kapling 36, Ruko AURI Blok D 12 A , Tanah Abang Bukit, Kampung Bali, Tanah Abang,  Kota Administrasi Jakarta Pusat","Kampung Bali, Tanah Abang, DKI Jakarta",-6.182209999999941,106.81659000000008
3273,2020-02-04,Kebakaran,"Jl. Tongkol Raya No. 6, Ancol, Pademangan,  Kota Administrasi Jakarta Utara","Jalan Tongkol 6, Pademangan, DKI Jakarta, 14430",-6.12822943679305,106.81078930856867
3275,2020-02-04,Kebakaran,"Gunung sahari VII  Blok 7B No. 26 A  (belakang Hotel Golden), Gunung Sahari Utara, Sawah Besar,  Kota Administrasi Jakarta Pusat","Gunung Sahari Utara, Sawah Besar, DKI Jakarta",-6.1490499999999315,106.83896000000004
3287,2020-02-05,Kebakaran,"Jl.Masdjid Nurul Iman, Kalideres, Kalideres,  Kota Administrasi Jakarta Barat","Kalideres, DKI Jakarta",-6.156549999999925,106.70466000000005
3290,2020-02-04,Kebakaran,"Jl.Facrudin Kav 36 Blok D 12A, Kampung Bali, Tanah Abang,  Kota Administrasi Jakarta Pusat","Kampung Bali, Tanah Abang, DKI Jakarta",-6.182209999999941,106.81659000000008
3303,2020-02-05,Kebakaran,"Perum. Bukit Cireundeu, Jl. Mawar Blok D4 No.11, Ciputat, Ciputat, Kota Tangerang Selatan","Jalan Mawar D4, Pamulang, Banten, 15438",-6.326799991692795,106.76112996729142
3304,2020-02-05,Kebakaran,"Jl. Mahakam I, Kramat Pela, Kebayoran Baru,  Kota Administrasi Jakarta Selatan","Jalan Mahakam I, Kebayoran Baru, DKI Jakarta, 12130",-6.243289173245688,106.79763705198441
3305,2020-02-05,Kebakaran,"Jl. Pesanggrahan, Kembangan Selatan, Kembangan,  Kota Administrasi Jakarta Barat","Jalan Pesanggrahan, Kembangan, DKI Jakarta, 11610",-6.18657741415861,106.7551846117764
3311,2020-02-06,Kebakaran,"Jl. Raya Poncol, Ciracas, Ciracas,  Kota Administrasi Jakarta Timur","Jalan Raya Poncol, Ciracas, DKI Jakarta, 13740",-6.326609686427463,106.86859845500815
3314,2020-02-06,Kebakaran,"Jl. Subur Raya, Duri Pulo, Gambir,  Kota Administrasi Jakarta Pusat","Jalan Subur Raya, Gambir, DKI Jakarta, 10140",-6.163832479320139,106.80280527395423
3320,2020-02-06,Kebakaran,"Jl. Kebon Jeruk 3 dan 4 , Maphar, Tamansari,  Kota Administrasi Jakarta Barat","Jalan Kebon Jeruk 3, Tamansari, DKI Jakarta, 11160",-6.158312464460228,106.82104567990362
3322,2020-02-07,Kebakaran,"Jl. Kebon Jeruk 3 dan 4 , Maphar, Tamansari,  Kota Administrasi Jakarta Barat","Jalan Kebon Jeruk 3, Tamansari, DKI Jakarta, 11160",-6.158312464460228,106.82104567990362
3323,2020-02-07,Kebakaran,"Jl. Lamandau 1, No. 22B, Kramat Pela, Kebayoran Baru,  Kota Administrasi Jakarta Selatan","Jalan Lamandau 1 22B, Kebayoran Baru, DKI Jakarta, 12130",-6.243669994288908,106.79424996804175
3328,2020-02-07,Kebakaran,"Jl. Sunter Muara , Sunter Agung, Tanjung Priok,  Kota Administrasi Jakarta Utara",Kota Administrasi Jakarta Utara,-6.139129999999966,106.86195000000004
3339,2020-02-08,Kebakaran,"Jl. Kebon Bawang XIV No.11, Kebon Bawang, Tanjung Priok,  Kota Administrasi Jakarta Utara","Jalan Kebon Bawang 11, Tanjung Priok, DKI Jakarta, 14320",-6.112029983714237,106.89070002496743
3340,2020-02-08,Kebakaran,"Jl. Rawa Malang Kecil, Semper Timur, Cilincing,  Kota Administrasi Jakarta Utara","Jalan Rawa Malang, Cilincing, DKI Jakarta, 14130",-6.121088996992314,106.93208787496552
3343,2020-02-08,Kebakaran,"Jl.Kebon Jeruk IX No..44, Maphar, Tamansari,  Kota Administrasi Jakarta Barat","Jalan Kebon Jeruk IX 44, Tamansari, DKI Jakarta, 11160",-6.152825000676958,106.8204701833221
3358,2020-02-08,Kebakaran,"Jl. Tebet Barat Dalam IIIA, Tebet Barat, Tebet,  Kota Administrasi Jakarta Selatan","Jalan Tebet Barat Dalam, Tebet, DKI Jakarta, 12810",-6.241660730877895,106.84997303082478
3391,2020-02-09,Kebakaran,"Jl. Jatinegara Timur, Rawa Bunga, Jatinegara,  Kota Administrasi Jakarta Timur","Jalan Jatinegara Timur, Jatinegara, DKI Jakarta, 13310",-6.213914828907272,106.86271487195738
3396,2020-02-09,Kebakaran,"Jl. Bambu Kuning, Bambu Apus, Cipayung,  Kota Administrasi Jakarta Timur","Jalan Bambu Kuning, Cipayung, DKI Jakarta, 13860",-6.351269973139871,106.9070200933642
3398,2020-02-09,Kebakaran,"Jl. Jend Sudirman Kav 5 - 6 (Menara Astra), Karet Tengsin, Tanah Abang,  Kota Administrasi Jakarta Pusat","Karet Tengsin, Tanah Abang, DKI Jakarta",-6.2033799999999815,106.82206000000008
3403,2020-02-09,Kebakaran,"Jl. Kyai Syafii Hadzami, Kebayoran lama Utara, Kebayoran Lama,  Kota Administrasi Jakarta Selatan","Jalan KH M Syafi'i Hadzami, Kebayoran Lama, DKI Jakarta, 12240",-6.243889956382986,106.78424507695448
3406,2020-02-09,Kebakaran,"Jl. Agung Utara VIII, Blok A30, Sunter Agung, Tanjung Priok,  Kota Administrasi Jakarta Utara","Jalan Agung Utara 8, Tanjung Priok, DKI Jakarta, 14330",-6.138482512588111,106.85928903432615
3407,2020-02-09,Kebakaran,"Jl. Pulau Nagka Barat 2, Kayu Putih, Pulogadung,  Kota Administrasi Jakarta Timur","Kayu Putih, Pulogadung, DKI Jakarta",-6.17790999999994,106.88272000000006
3412,2020-02-09,Kebakaran,"Jl. Mangga Besar IX (Lokasari Square), Tangki, Tamansari,  Kota Administrasi Jakarta Barat","Jalan Mangga Besar IX, Tamansari, DKI Jakarta, 11160",-6.143328862419492,106.82290676437914
3413,2020-02-10,Kebakaran,"Jl. Arabika VIII, AB7, No. 5, Pondok Kopi, Duren Sawit,  Kota Administrasi Jakarta Timur","Jalan Arabika VIII 5, Duren Sawit, DKI Jakarta, 13460",-6.2312999815825805,106.94466003540191
3415,2020-02-10,Kebakaran,"Jl.Pejaten Raya, Ragunan, Pasar Minggu,  Kota Administrasi Jakarta Selatan","Jalan Pejaten Raya, Pasar Minggu, DKI Jakarta, 12510",-6.276948360883407,106.83669746925746
3422,2020-02-10,Kebakaran,"Jl. Arteri Kelapa Gading No. 33, Pegangsaan Dua, Kelapa Gading,  Kota Administrasi Jakarta Utara","Jalan Arteri Kelapa Gading 33, Kelapa Gading, DKI Jakarta, 14250",-6.17309372340592,106.91394378350661
3424,2020-02-10,Kebakaran,"Jl. Cibeber 1 No.. 27, Rawa Barat, Kebayoran Baru,  Kota Administrasi Jakarta Selatan","Jalan Cibeber 1 27, Kebayoran Baru, DKI Jakarta, 12180",-6.2342699832442605,106.81242000628839
3425,2020-02-10,Kebakaran,"Jl. Warung Buncit ( Gedung Graha Inti Fauzi ), Pejaten Barat, Pasar Minggu,  Kota Administrasi Jakarta Selatan","Pejaten Barat, Pasar Minggu, DKI Jakarta",-6.270279999999957,106.83784000000009
3431,2020-02-10,Kebakaran,"Jl.H.Naba Raya No..24, Ciledug, Ciledug, Kota Tangerang","Ciledug, Tangerang Kota, Banten",-6.226439999999968,106.71290000000005
3435,2020-02-11,Kebakaran,"Jl.Danau Limboto ( Depan SMK 19 ), Bendungan Hilir, Tanah Abang,  Kota Administrasi Jakarta Pusat","Jalan Danau Limboto, Tanah Abang, DKI Jakarta, 10210",-6.208559832639689,106.8066512351782
3436,2020-02-11,Kebakaran,"Jl.Jati Padang Putra Raya, Jatipadang, Pasar Minggu,  Kota Administrasi Jakarta Selatan","Jalan Jati Padang, Pasar Minggu, DKI Jakarta, 12540",-6.289578742527565,106.82811782054382
3438,2020-02-10,Kebakaran,"Jl.Cempaka Putih Utara V No..35, Cempaka Baru, Kemayoran,  Kota Administrasi Jakarta Pusat","Jalan Cempaka Putih Utara 35, Kemayoran, DKI Jakarta, 10640",-6.173275960919715,106.8574330996609
3444,2020-02-11,Kebakaran,"Jl. Keselamatan No.15, Krukut, Tamansari,  Kota Administrasi Jakarta Barat","Jalan Keselamatan 15, Tamansari, DKI Jakarta, 11140",-6.157634037211732,106.81550018587706
3445,2020-02-11,Kebakaran,"Jl. Utan Panjang II, Utan Panjang, Kemayoran,  Kota Administrasi Jakarta Pusat","Jalan Utan Panjang, Kemayoran, DKI Jakarta, 10650",-6.1670899513024295,106.85518007579034
3449,2020-02-11,Kebakaran,"Jl. Boulevard Raya (Taman Joging), Kelapa Gading Timur, Kelapa Gading,  Kota Administrasi Jakarta Utara","Jalan Boulevard Raya, Kelapa Gading, DKI Jakarta, 14240",-6.165487538396619,106.90211609068061
3461,2020-02-12,Kebakaran,"Jl. Ambon, Cengkareng Timur, Cengkareng,  Kota Administrasi Jakarta Barat","Cengkareng Timur, Cengkareng, DKI Jakarta",-6.137309999999957,106.73577000000006
3462,2020-02-12,Kebakaran,"Jl. Perniagaan Raya, Roa Malaka, Tambora,  Kota Administrasi Jakarta Barat","Jalan Perniagaan Raya, Tambora, DKI Jakarta, 11230",-6.141573413392221,106.80942286552654
3475,2020-02-12,Kebakaran,"Jl. Kramat 3 F1 (Titik Kenal Musholah Raudatul Jannah), Lubang Buaya, Cipayung,  Kota Administrasi Jakarta Timur","Jalan Kramat 3, Cipayung, DKI Jakarta, 13810",-6.2917399994524885,106.90609003738786
3484,2020-02-13,Kebakaran,"Jl.Kembangan Raya No..19, Kembangan Selatan, Kembangan,  Kota Administrasi Jakarta Barat","Jalan Kembangan Raya 19, Kembangan, DKI Jakarta, 11610",-6.184380015444191,106.73676000290402
3487,2020-02-13,Kebakaran,"Jl.Perdana Kav K no.143, Wijaya Kusuma, Grogol Petamburan,  Kota Administrasi Jakarta Barat","Jalan Perdana 143, Grogol Petamburan, DKI Jakarta, 11460",-6.152180012386381,106.77591002861777
3493,2020-02-13,Kebakaran,"Jl. Anyer 16, Menteng, Menteng,  Kota Administrasi Jakarta Pusat","Jalan Anyer I 16, Menteng, DKI Jakarta, 10310",-6.20392110761081,106.84280110044989
3495,2020-02-13,Kebakaran,"Jl. Rawa Jati Timur 2 No. 63A, Pondok Kopi, Duren Sawit,  Kota Administrasi Jakarta Timur","Jalan Pondok Kopi 63A, Duren Sawit, DKI Jakarta, 13460",-6.229773083319215,106.9435154570699
3499,2020-02-13,Kebakaran,"Jl.Kartika No..101, Meruya Utara, Kembangan,  Kota Administrasi Jakarta Barat","Jalan Kartika 101, Kembangan, DKI Jakarta, 11620",-6.203220019211628,106.73632003680632
3502,2020-02-14,Kebakaran,"Jl.Cendrawasi 7 No..14, Cengkareng Barat, Cengkareng,  Kota Administrasi Jakarta Barat","Jalan Cendrawasih 7 14, Cengkareng, DKI Jakarta, 11730",-6.144345797499781,106.72312290679805
3505,2020-02-14,Kebakaran,"Jl. Sungai Brantas No.10, Semper Barat, Cilincing,  Kota Administrasi Jakarta Utara","Jalan Sungai Brantas 10, Cilincing, DKI Jakarta, 14130",-6.128409982718722,106.92556002499794
3516,2020-02-14,Kebakaran,"Jl Pengadekan Barat V, Pengadegan, Pancoran,  Kota Administrasi Jakarta Selatan","Jalan Pengadegan Barat V, Pancoran, DKI Jakarta, 12770",-6.2481055708316315,106.85368849005741
3519,2020-02-14,Kebakaran,"Jl. Prepetan Raya No.10, Kamal, Kalideres,  Kota Administrasi Jakarta Barat","Jalan Raya Prepedan 10, Kalideres, DKI Jakarta, 11810",-6.1183548351263175,106.7105545551066
3521,2020-02-15,Kebakaran,"Jl. Budi Mulia , Pademangan Barat, Pademangan,  Kota Administrasi Jakarta Utara","Jalan Budi Mulia, Pademangan, DKI Jakarta, 14420",-6.132439959855951,106.83681008724346
3525,2020-02-15,Kebakaran,"Jl. Madu, Mangga Besar, Tamansari,  Kota Administrasi Jakarta Barat","Jalan Madu, Tamansari, DKI Jakarta, 11180",-6.144076855133194,106.81939134809191
3529,2020-02-15,Kebakaran,"Jl. Ciputat Raya, Gg. Widaya, Kebayoran lama Utara, Kebayoran Lama,  Kota Administrasi Jakarta Selatan","Jalan Ciputat Raya, Kebayoran Lama, DKI Jakarta, 12240",-6.244901468191715,106.78030528099688
3535,2020-02-15,Kebakaran,"Jl. Taman Kota, Blok. A6, Kembangan Utara, Kembangan,  Kota Administrasi Jakarta Barat","Jalan Taman Kota, Kembangan, DKI Jakarta, 11610",-6.159155835092476,106.75699698401849
3537,2020-02-16,Kebakaran,"Jl. Kalibata tengah I No..24, Kalibata, Pancoran,  Kota Administrasi Jakarta Selatan","Jalan Kalibata Tengah 24, Pancoran, DKI Jakarta, 12740",-6.261850007000305,106.83120997009388
3553,2020-02-16,Kebakaran,"Jl. Madu, Mangga Besar, Tamansari,  Kota Administrasi Jakarta Barat","Jalan Madu, Tamansari, DKI Jakarta, 11180",-6.144076855133194,106.81939134809191
3561,2020-02-17,Kebakaran,"Jl. Benda I No..217, Pulo, Kebayoran Baru,  Kota Administrasi Jakarta Selatan","Jalan Benda I, Kebayoran Baru, DKI Jakarta, 12160",-6.25056361360378,106.79564228262477
3562,2020-02-16,Kebakaran,"Taman Ratu, Duri Kepa, Kebun Jeruk,  Kota Administrasi Jakarta Barat","Jalan Taman Ratu Raya, Kebon Jeruk, DKI Jakarta, 11510",-6.166814902578587,106.76755810699846
3564,2020-02-17,Kebakaran,"Jl. Jati Bunder Dalam No.6, Kebon Melati, Tanah Abang,  Kota Administrasi Jakarta Pusat","Jalan Jati Bunder 6, Tanah Abang, DKI Jakarta, 10230",-6.192050001673422,106.81153999027401
3577,2020-02-18,Kebakaran,"Jl. Kalibaru Barat IV, Kalibaru, Cilincing,  Kota Administrasi Jakarta Utara","Jalan Kalibaru Barat IV, Cilincing, DKI Jakarta, 14110",-6.105678737150401,106.92303850527777
3579,2020-02-18,Kebakaran,"Jl. Pangeran Antasari No. 55, Cipete Utara, Kebayoran Baru,  Kota Administrasi Jakarta Selatan","Jalan Pangeran Antasari 55, Kebayoran Baru, DKI Jakarta, 12150",-6.262807470816426,106.80785930093856
3581,2020-02-18,Kebakaran,"Jl. Gatot Subroto 101, Bendungan Hilir, Tanah Abang,  Kota Administrasi Jakarta Pusat","Jalan Gatot Subroto 101, Tanah Abang, DKI Jakarta, 10210",-6.211350004287141,106.80674998406636
3586,2020-02-18,Kebakaran,"Jl. Warakas IV Gg. 4 No. 44, Warakas, Tanjung Priok,  Kota Administrasi Jakarta Utara","Jalan Warakas I 4, Tanjung Priok, DKI Jakarta, 14340",-6.116522016903229,106.87818247838945
3593,2020-02-18,Kebakaran,"Jl. Rawa Binong, Gg. Delima II, Lubang Buaya, Cipayung,  Kota Administrasi Jakarta Timur","Jalan Rawa Binong, Cipayung, DKI Jakarta, 13810",-6.297362113400203,106.90323110781277
3596,2020-02-19,Kebakaran,"Jl. PadaMulya, Angke, Tambora,  Kota Administrasi Jakarta Barat","Jalan Padamulya, Tambora, DKI Jakarta, 11290",-6.146539286010182,106.79197296889436
3597,2020-02-18,Kebakaran,"Jl. Cideng Timur No. 85, Petojo Utara, Gambir,  Kota Administrasi Jakarta Pusat","Jalan Cideng Timur 85, Gambir, DKI Jakarta, 10160",-6.178329999641676,106.81298000123957
3601,2020-02-19,Kebakaran,"Jl.Tomang Banjir Kanal No..46, Tomang, Grogol Petamburan,  Kota Administrasi Jakarta Barat","Jalan Tomang, Grogol Petamburan, DKI Jakarta, 11440",-6.172955372201784,106.79473447054824
3616,2020-02-20,Kebakaran,"Jl.Cikoko Timur Raya No..39, Cikoko, Pancoran,  Kota Administrasi Jakarta Selatan","Jalan Cikoko Timur 39, Pancoran, DKI Jakarta, 12770",-6.244940020258042,106.8594600012803
3617,2020-02-20,Kebakaran,"Jl.Pakubuwono Raya, Gunung, Kebayoran Baru,  Kota Administrasi Jakarta Selatan","Gunung, Kebayoran Baru, DKI Jakarta",-6.235469999999964,106.79095000000007
3620,2020-02-20,Kebakaran,"Pergudangan Central Cakung, Jl. Cakung Cilincing Timur Blok 23 No. 22, Rorotan, Cilincing,  Kota Administrasi Jakarta Utara","Jalan Cakung Cilincing Timur 23, Cakung, DKI Jakarta, 13910",-6.181554701823518,106.94333051749659
3621,2020-02-20,Kebakaran,"Jl. Pete I No.68, Pulo, Kebayoran Baru,  Kota Administrasi Jakarta Selatan","Pulo, Kebayoran Baru, DKI Jakarta",-6.254429999999957,106.80144000000007
3631,2020-02-20,Kebakaran,"Jl. Bacang I, Lubang Buaya, Cipayung,  Kota Administrasi Jakarta Timur","Jalan Bacang, Cipayung, DKI Jakarta, 13810",-6.288774964068445,106.89988512401462
3638,2020-02-20,Kebakaran,"Pergudangan Central Cakung, Jl. Cakung Cilincing Timur Blok 23 No. 22, Rorotan, Cilincing,  Kota Administrasi Jakarta Utara","Jalan Cakung Cilincing Timur 23, Cakung, DKI Jakarta, 13910",-6.181554701823518,106.94333051749659
3647,2020-02-21,Kebakaran,"Pergudangan Central Cakung, Jl. Cakung Cilincing Timur Blok 23 No. 22, Rorotan, Cilincing,  Kota Administrasi Jakarta Utara","Jalan Cakung Cilincing Timur 23, Cakung, DKI Jakarta, 13910",-6.181554701823518,106.94333051749659
3648,2020-02-21,Kebakaran,"Jl. Pulo Nangka Barat II, No. 8D, Kayu Putih, Pulogadung,  Kota Administrasi Jakarta Timur","Jalan Pulo Nangka Barat 2 8D, Pulogadung, DKI Jakarta, 13210",-6.1755456075087825,106.89120050239124
3649,2020-02-21,Kebakaran,"Jl. H. Jirin, Pasar Gardu, Lubang Buaya, Cipayung,  Kota Administrasi Jakarta Timur","Lubang Buaya, Cipayung, DKI Jakarta",-6.294089999999926,106.90446000000009
3650,2020-02-21,Kebakaran,"Jl. Kav. Agraria, No. 158, Duren Sawit, Duren Sawit,  Kota Administrasi Jakarta Timur","Jalan Duren Sawit 158, Duren Sawit, DKI Jakarta, 13470",-6.219418277664846,106.90192525361974
3651,2020-02-21,Kebakaran,"Jl. Otista Raya, Gg. Padesin, Kampung Mester/Melayu, Jatinegara,  Kota Administrasi Jakarta Timur","Jalan Otista Raya, Jatinegara, DKI Jakarta, 13330",-6.238069960958356,106.86859506036555
3654,2020-02-21,Kebakaran,"Jl. Gading Indah Utara II, Blok NH3, No. 1, Pegangsaan Dua, Kelapa Gading,  Kota Administrasi Jakarta Utara","Jalan Gading Indah Utara 2 1, Kelapa Gading, DKI Jakarta, 14250",-6.158630012608427,106.91270998069677
3655,2020-02-21,Kebakaran,"Jl. Raya Pulogebang, Gg. Ridho, Pulo Gebang, Cakung,  Kota Administrasi Jakarta Timur","Jalan Raya Pulo Gebang, Cakung, DKI Jakarta, 13950",-6.204389545673346,106.95551639876608
3662,2020-02-22,Kebakaran,"Jl. H Ten raya, No. 66, Rawamangun, Pulogadung,  Kota Administrasi Jakarta Timur","Jalan H Ten 66, Pulogadung, DKI Jakarta, 13220",-6.189902843851198,106.87811254195181
3664,2020-02-22,Kebakaran,"Jl. Medan Merdeka Barat (JPO), Gambir , Gambir,  Kota Administrasi Jakarta Pusat","Jalan Medan Merdeka Barat, Gambir, DKI Jakarta, 10110",-6.180363173589419,106.82260838272434
3666,2020-02-22,Kebakaran,"Jl.Pegangsaan Barat No..12, Menteng, Menteng,  Kota Administrasi Jakarta Pusat","Jalan Pegangsaan Barat 12, Menteng, DKI Jakarta, 10310",-6.198719144007213,106.84110927519511
3674,2020-02-22,Kebakaran,"Jl.Raya Bogor No. 10 ( Gedung LPSK ), Susukan, Ciracas,  Kota Administrasi Jakarta Timur","Jalan Raya Bogor 10, Ciracas, DKI Jakarta, 13750",-6.3045500201659905,106.8672300255239
3681,2020-02-23,Kebakaran,"Jl.Kampung Sukasari No..12, Harapan Mulia, Kemayoran,  Kota Administrasi Jakarta Pusat","Jalan Harapan Mulia I 12, Kemayoran, DKI Jakarta, 10640",-6.172309991052515,106.85627999103457
3683,2020-02-23,Kebakaran,"Pasar Mobil Kemayoran Blok S No.99, Gunung sahari selatan, Kemayoran,  Kota Administrasi Jakarta Pusat","Gunung Sahari Selatan, Kemayoran, DKI Jakarta",-6.157239999999945,106.84455000000008
3705,2020-02-23,Kebakaran,"Jl. M.T Haryono Kav.9, Tebet barat, Tebet,  Kota Administrasi Jakarta Selatan","Jalan Letjen M T Haryono 9, Jatinegara, DKI Jakarta, 13330",-6.243120015712051,106.86539003013883
3706,2020-02-23,Kebakaran,"Jl. Makmur 1 No..32, Menteng Atas, Setiabudi,  Kota Administrasi Jakarta Selatan","Jalan Makmur 1, Setiabudi, DKI Jakarta, 12960",-6.2199199973698285,106.84407996332465
3733,2020-02-23,Kebakaran,"Jl. Subadra No.28, Tanah Tinggi, Johar Baru,  Kota Administrasi Jakarta Pusat","Jalan Sumbadra 28, Johar Baru, DKI Jakarta, 10540",-6.179889997551172,106.84927003777085
3735,2020-02-23,Kebakaran,"Jl. Lagoa Kamal, Kebon Bawang, Tanjung Priok,  Kota Administrasi Jakarta Utara","Jalan Lagoa Kanal, Tanjung Priok, DKI Jakarta, 14320",-6.111606318340445,106.88594501673539
3736,2020-02-23,Kebakaran,"Jl. Sungai Brantas No.10, Semper barat, Cilincing,  Kota Administrasi Jakarta Utara","Jalan Sungai Brantas 10, Cilincing, DKI Jakarta, 14130",-6.128409982718722,106.92556002499794
3790,2020-02-23,Kebakaran,"Jl. Tebet Timur III, Tebet Timur, Tebet,  Kota Administrasi Jakarta Selatan","Jalan Tebet Timur III, Tebet, DKI Jakarta, 12820",-6.237929941265804,106.85504295525156
3793,2020-02-23,Kebakaran,"Jl. Green garden Blok C18 No. 03, Rorotan, Cilincing,  Kota Administrasi Jakarta Utara","Rorotan, Cilincing, DKI Jakarta",-6.144289999999955,106.95548000000008
3798,2020-02-23,Kebakaran,"Jl. Kebon Sayur I, Bidara Cina, Jatinegara,  Kota Administrasi Jakarta Timur","Jalan Kebon Sayur I, Jatinegara, DKI Jakarta, 13330",-6.230252896193452,106.86559791305298
3800,2020-02-24,Kebakaran,"Jl. Cipinang Bali I, Cipinang Muara, Jatinegara,  Kota Administrasi Jakarta Timur","Jalan Cipinang Bali I, Jatinegara, DKI Jakarta, 13380",-6.238853790208208,106.89046660625519
3801,2020-02-24,Kebakaran,"Gg. Temon, Kebayoran Lama UTara, Kebayoran Lama,  Kota Administrasi Jakarta Selatan","Kebayoran Lama Utara, Kebayoran Lama, DKI Jakarta",-6.244479999999953,106.78232000000008
3816,2020-02-24,Kebakaran,"Wisma Nusantara III MPR & DPR, Jl. Gelora Bung Karno, Gelora, Tanah Abang,  Kota Administrasi Jakarta Pusat","Jalan Gelora Bung Karno, Tanah Abang, DKI Jakarta, 10270",-6.214859968151366,106.80268006716051
3824,2020-02-24,Kebakaran,"Jl. Karang Tengah 1, Lebak Bulus, Cilandak,  Kota Administrasi Jakarta Selatan","Jalan Karang Tengah 1, Cilandak, DKI Jakarta, 12440",-6.310982138819112,106.78391861511433
3825,2020-02-24,Kebakaran,"Jl. Tipar Cakung, Kav. MI Sukapura, Sukapura, Cilincing,  Kota Administrasi Jakarta Utara","Jalan Tipar Cakung, Cilincing, DKI Jakarta, 14140",-6.145746660353244,106.92308585822634
3826,2020-02-24,Kebakaran,"Jl. Sukarela, Penjaringan, Penjaringan,  Kota Administrasi Jakarta Utara","Jalan Sukarela, Penjaringan, DKI Jakarta, 14440",-6.130771426694009,106.80265244366778
3827,2020-02-24,Kebakaran,"Jl. Angkasa Dalam I, Gunung Sahari Selatan, Kemayoran,  Kota Administrasi Jakarta Pusat","Jalan Angkasa Dalam I, Kemayoran, DKI Jakarta, 10610",-6.158319916422719,106.84242003235185
3831,2020-02-25,Kebakaran,"Jl. Bungur 1, No. 26, Kebayoran Lama Selatan, Kebayoran Lama,  Kota Administrasi Jakarta Selatan","Jalan Bungur 1 26, Kebayoran Lama, DKI Jakarta, 12240",-6.2498000153572235,106.78035998101365
3832,2020-02-25,Kebakaran,"Jl. Duri ( TSS Raya ) No. 31, Duri Utara, Tambora,  Kota Administrasi Jakarta Barat","Duri Utara, Tambora, DKI Jakarta",-6.153419999999926,106.80793000000006
3833,2020-02-25,Kebakaran,"Jl. Bona Indah, Lebak Bulus, Cilandak,  Kota Administrasi Jakarta Selatan","Jalan Bona Indah, Cilandak, DKI Jakarta, 12440",-6.29763286711629,106.78267728748128
3840,2020-02-25,Kebakaran,"Ruko Keramat Pemuda, Jati, Pulogadung,  Kota Administrasi Jakarta Timur","Jati, Pulogadung, DKI Jakarta",-6.201689999999928,106.89707000000004
3850,2020-02-25,Kebakaran,"Jl. Raya Malaka No. 122   ( Samping Kantor kelurahan Malaka Sari ), Malaka Sari, Duren Sawit,  Kota Administrasi Jakarta Timur","Jalan Malaka Raya 122, Duren Sawit, DKI Jakarta, 13460",-6.227510020242775,106.92810996758197
3851,2020-02-25,Kebakaran,"Jl.Mampang Prapatan Raya No. 57, Mampang Prapatan, Mampang Prapatan,  Kota Administrasi Jakarta Selatan","Jalan Mampang Prapatan 57, Mampang Prapatan, DKI Jakarta, 12710",-6.2450499908277095,106.82597999778852
3940,2020-02-25,Kebakaran,"Jl.Mangga Besar V, Mangga Besar, Tamansari,  Kota Administrasi Jakarta Barat","Jalan Mangga Besar V, Tamansari, DKI Jakarta, 11180",-6.145144322370022,106.82069650096663
3941,2020-02-25,Kebakaran,"Jl.Kebon Jeruk 17, Maphar, Tamansari,  Kota Administrasi Jakarta Barat","Jalan Kebon Jeruk 17, Tamansari, DKI Jakarta, 11160",-6.151530989156548,106.8199755979003
3942,2020-02-25,Kebakaran,"Jl.Lesehan Kehed / Utan Jati Raya, Pegadungan, Kalideres,  Kota Administrasi Jakarta Barat","Pegadungan, Kalideres, DKI Jakarta",-6.129859999999951,106.70373000000006
3951,2020-02-26,Kebakaran,"Jl.Penggilingan Baru No..26E, Dukuh, Kramat Jati,  Kota Administrasi Jakarta Timur","Jalan Penggilingan Baru 26E, Kramatjati, DKI Jakarta, 13550",-6.3001348507410215,106.87636964901594
3956,2020-02-26,Kebakaran,"Jl. Janur Asri III QL 7 No.6, Kelapa Gading barat, Kelapa Gading,  Kota Administrasi Jakarta Utara","Jalan Janur Asri I 7, Kelapa Gading, DKI Jakarta, 14240",-6.145753055309894,106.90665604535683
